RUBRO,NOMBRE DE FANTASIA,CALLE,NRO.,LOCALIDAD,DEPARTAMENTO,DIRECCION COMPLETA,Latitude,Longitude,TELEFONOS,RES.,PROPIETARIO
RESTAURANTE,GOVINDA,AV.COLON,424,CIUDAD,CAPITAL,AV.COLON 424 CIUDAD CAPITAL,-32.89412360,-68.84611880,,E/T,GOVINDA S.A.
BAR,ENTRETENIMIENTOS AVENIDA,AV.SAN MARTIN,950,CIUDAD,CAPITAL,AV.SAN MARTIN 950 CIUDAD CAPITAL,-32.89222240,-68.84011070,4200733,187/05,ENTRETENIMIENTOS AVENIDA S.R.L.
CAFETERIA,MIKELINOS,ENTRE RIOS,1685,CIUDAD,SAN RAFAEL,ENTRE RIOS 1685 CIUDAD SAN RAFAEL,37.97353460,-122.53108740,0260-4427448,584/11,"REINA DE BONICELLI, EDITH PERLA"
PARRILLADA,MI QUINCHO,BRANDSEN,36,CIUDAD,TUNUYAN,BRANDSEN 36 CIUDAD TUNUYAN,-33.57698200,-69.01620630,02622-423668,114/96,"PERELLO, JOSE SALVADOR"
HELADERIA,FIRENZE,URUGUAY Y COSTANERA,N/T,SAN JOSE,GUAYMALLEN,URUGUAY Y COSTANERA N/T SAN JOSE GUAYMALLEN,-32.88852470,-68.82367540,,293/92,"SOSA,OSVALDO S."
RESTAURANTE,LA MIRA,BELGRANO,1191,CIUDAD,CAPITAL,BELGRANO 1191 CIUDAD CAPITAL,-32.88800090,-68.84817880,4203000,871/13,"BALAGUER, JUAN ANTONIO"
CAFETERIA,EL HORNERO,AV.SAN MARTIN,1823,CIUDAD,CAPITAL,AV.SAN MARTIN 1823 CIUDAD CAPITAL,-32.90610400,-68.84345300,4257874,E/T,"ORTIZ, NELIDA MARIA"
CARRITO-BAR,DON FORTUNA,SARMIENTO,1200,CIUDAD,GUAYMALLEN,SARMIENTO 1200 CIUDAD GUAYMALLEN,-32.90282080,-68.80470040,,N/T,"FORTUNA,RAUL JOSE"
HELADERIA,HELADERIA PERIN,AV.SARMIENTO,799,CIUDAD,CAPITAL,AV.SARMIENTO 799 CIUDAD CAPITAL,-32.88861800,-68.84940220,4257624,77/15,PERIN EMPRENDIMIENTOS S.A.
HELADERIA,FERRUCCIO SOPPELSA,BELGRANO,1092,CIUDAD,CAPITAL,BELGRANO 1092 CIUDAD CAPITAL,-32.88886350,-68.84966870,4255750,N/T,FERRUCCIO SOPPELSA S.R.L.
CAFETERIA,HAVANNA,PELLEGRINI ESQUINA DAY,,CIUDAD,SAN RAFAEL,PELLEGRINI ESQUINA DAY CIUDAD SAN RAFAEL,-36.26784220,-63.16458570,0260-4420144,E/T,"GARCIA, ANA SILVINA"
BAR,LOBY BAR,AV.SAN MARTIN,366,CIUDAD,CAPITAL,AV.SAN MARTIN 366 CIUDAD CAPITAL,-32.92029800,-68.84743290,4243836,519/10,LOS RIELES S.A.
RESTAURANTE,DON OTTO,AV.LAS HERAS,242,CIUDAD,CAPITAL,AV.LAS HERAS 242 CIUDAD CAPITAL,-32.88582300,-68.84134110,155891121,979/13,DEL S.A.
HELADERIA,CHINI,AV.LAS HERAS,202,CIUDAD,CAPITAL,AV.LAS HERAS 202 CIUDAD CAPITAL,-32.88597240,-68.84103460,4255792,E/T,CHINI S.A.
CARRITO-BAR,VIA VENETO,AMIGORENA,78,CIUDAD,CAPITAL,AMIGORENA 78 CIUDAD CAPITAL,-32.89183680,-68.83867930,4291580,N/T,"CONTE,LEONARDO Y NICOLAS Y GARGIULO A."
CONFITERIA,VIKINGOS,JOSE HERNANDEZ,35,CIUDAD,RIVADAVIA,JOSE HERNANDEZ 35 CIUDAD RIVADAVIA,-31.52716350,-68.59830080,,270/83,"NEGRI, VICTOR"
CARRITO-BAR,PIAMONTE,AV.SAN MARTIN,601,CIUDAD,GODOY CRUZ,AV.SAN MARTIN 601 CIUDAD GODOY CRUZ,-32.91796000,-68.84633500,4249391,341/05,"VIDAL, GUILLERMO"
PIZZERIA,CAPRI,LAVALLE,109,CIUDAD,CAPITAL,LAVALLE 109 CIUDAD CAPITAL,-32.88870690,-68.83662000,4230262,473/97,CAPRI S.R.L. (LUIS FERNANDO SCACCIA)
SANDWICHERIA,EL CONDOR,RAWSON,17,CIUDAD,SAN RAFAEL,RAWSON 17 CIUDAD SAN RAFAEL,37.97353460,-122.53108740,0260-154551340,233/02,"ARENAS, LUIS A."
RESTAURANTE,PATIO DE COMIDAS TAC LTDA.,TERMINAL DEL SOL P.ALTA NORTE,S/N,CIUDAD,GUAYMALLEN,TERMINAL DEL SOL P.ALTA NORTE S/N CIUDAD GUAYMALLEN,-32.89489780,-68.82907250,4312860,553/96,COOP.TAC LTDA. HUGO ANDINO (APODERADO)
RESTAURANTE,LA PIZZA,AV.SARMIENTO,781,CIUDAD,CAPITAL,AV.SARMIENTO 781 CIUDAD CAPITAL,-32.88867500,-68.84918100,4340244,E/T,"MARTINEZ, ADRIAN CARMELO"
CAFETERIA,MITRE,AV.MITRE,1967,CIUDAD,CAPITAL,AV.MITRE 1967 CIUDAD CAPITAL,-32.87999840,-68.84165930,,316/05,"FERNANDEZ, PURA DEL BALLE"
RESTAURANTE,LOS PARRALES,25 DE MAYO,817,CIUDAD,CAPITAL,25 DE MAYO 817 CIUDAD CAPITAL,-34.69297870,-58.73431060,4204499,N/T,HOTEL ACONCAGUA LEG.15
RESTAURANTE,BETEC,RUTA 7,S/N,USPALLATA,LAS HERAS,RUTA 7 S/N USPALLATA LAS HERAS,-32.60163020,-69.35134280,4255726,539/09,"MONETTI, ROBERTO"
RESTAURANTE,EL GRAN POLLO,PUEYRREDON,17,CIUDAD,SAN RAFAEL,PUEYRREDON 17 CIUDAD SAN RAFAEL,-34.60245480,-68.33472810,0260-4428754,225/01,"MALANO, HERMES DANIEL"
CAFETERIA,CAF BAMAC,AV.SAN MARTIN,1425,GAL.BAMAC,CAPITAL,AV.SAN MARTIN 1425 GAL.BAMAC CAPITAL,-34.60664530,-58.44956240,4257198,297/11,"RAMOS, EDUARDO JAVIER"
RESTAURANTE,348 FOOD & DRINKS,SAN LORENZO,348,CIUDAD,CAPITAL,SAN LORENZO 348 CIUDAD CAPITAL,-32.89316054,-68.84471968,4295082,490/08,"DE SIMONE, PABLO SEBASTIAN"
CAF,ALTO ALAMEDA,AYACUCHO,22,,CAPITAL,AYACUCHO 22 CAPITAL,-13.16387370,-74.22356410,4303925,212/00,"GUTIERREZ, MARCEL Y OTROS"
CAFETERIA,ANGELES,GUTIERREZ,44,CIUDAD,CAPITAL,GUTIERREZ 44 CIUDAD CAPITAL,-32.88861565,-68.83944005,4291028,E/T,"SIMIONI, MARIA TERESA"
CAFETERIA,CAF PLAZA,ARISTOBULO DEL VALLE,31,CIUDAD,RIVADAVIA,ARISTOBULO DEL VALLE 31 CIUDAD RIVADAVIA,-33.19528230,-68.46554980,02623-442498,378/08,"BENAVIDEZ, JUAN CEFERINO"
CAFETERIA,EL ITALIANO,PEDRO MOLINA,135,CIUDAD,CAPITAL,PEDRO MOLINA 135 CIUDAD CAPITAL,-32.89634668,-68.84274235,4257817,071/05,"FLORES VEDIA, ESTEBAN"
PARRILLADA,DON MARIO,25 DE MAYO,1324,DORREGO,GUAYMALLEN,25 DE MAYO 1324 DORREGO GUAYMALLEN,-32.88681940,-68.84646210,4310810,N/T,FERRARI M. Y H.ACOSTA
HELADERIA,VENECIA,RUTA PANAMERICANA,2185,,GODOY CRUZ,RUTA PANAMERICANA 2185 GODOY CRUZ,-33.01363460,-68.92723130,,126/10,"VAZQUEZ, MAURICIO ENRIQUE"
CAFETERIA,EL DUENDE,AV.SAN MARTIN,2860,CIUDAD,CAPITAL,AV.SAN MARTIN 2860 CIUDAD CAPITAL,-32.86971460,-68.83412940,261-4376380,740/96,"AGšERO, FRANCISCO"
SANDWICHERIA,PANCHO SHOPP,25 DE MAYO,3550,CIUDAD,GUAYMALLEN,25 DE MAYO 3550 CIUDAD GUAYMALLEN,-32.90282080,-68.80470040,4213742,146/96,"ANDRADE, UBALDO JAVIER"
CAFETERIA,LA CAFETERIA,MARCOS BURGOS,515,CIUDAD,LAS HERAS,MARCOS BURGOS 515 CIUDAD LAS HERAS,42.35046590,-3.68935450,,394/91,"DIAZ,ROBERTO OMAR"
HELADERIA,ANAHI,SAN MARTIN,348,CIUDAD,MALARGUE,SAN MARTIN 348 CIUDAD MALARGUE,-35.48446200,-69.57974950,,320/05,"CARETTA, MARIA DEL CARMEN"
RESTAURANTE,MANKE,AV.LAS HERAS,88,CIUDAD,CAPITAL,AV.LAS HERAS 88 CIUDAD CAPITAL,-32.88627550,-68.83931280,4259008,345/09,"FLORES DE VEGA, RAMONA ROSA"
DRUGSTORE,SERVICOMPRAS YPF,BELGRANO,1201,CIUDAD,TUPUNGATO,BELGRANO 1201 CIUDAD TUPUNGATO,-33.37280360,-69.14755830,02622-449000,E/T,"SANCHEZ, CECILIA BELEN"
PIZZERIA,PIZZA Y CHOPP,GARIBALDI,142,CIUDAD,CAPITAL,GARIBALDI 142 CIUDAD CAPITAL,-32.89093678,-68.83646673,4201337,106/05,"RETA, CLAUDIA NANCY"
RESTAURANTE,LA PASSAIA,RUTA DEL SOL,S/N,PIEDRAS BLANCAS,LUJAN,RUTA DEL SOL S/N PIEDRAS BLANCAS LUJAN,-34.56333120,-59.12088050,154674698,E/T,"RIGOLI, MARIA ROSA"
BAR,ALCAZAR,PUENTE DEL INCA,,PUENTE DEL INCA,LAS HERAS,PUENTE DEL INCA PUENTE DEL INCA LAS HERAS,-32.82220430,-69.92371390,,E/T,"PALACIO, GISELA FABIOLA"
RESTAURANTE,HOSTAL LOS CONDORES,RUTA 7,S/N,USPALLATA,LAS HERAS,RUTA 7 S/N USPALLATA LAS HERAS,-32.60163020,-69.35134280,02624-420002,93/01,"SUTER, ALEJANDRA EUGENIA"
RESTAURANTE,TARAMANTES,25 DE MAYO,1626,CIUDAD,CAPITAL,25 DE MAYO 1626 CIUDAD CAPITAL,-32.89886741,-68.81735786,4232686,418/91,"JAIME, ANDRES F."
RESTAURANTE,EL MESON ESPA¥OL,MONTEVIDEO,244,CIUDAD,CAPITAL,MONTEVIDEO 244 CIUDAD CAPITAL,-34.90550160,-56.18511470,4296175,N/T,"LONGAS, ANTONIO"
RESTAURANTE,GOVINDA,AV.SAN MARTIN,948,CIUDAD,GODOY CRUZ,AV.SAN MARTIN 948 CIUDAD GODOY CRUZ,-32.91480770,-68.84600790,4243799,657/15,GOVINDA S.A.
RESTAURANTE,LO DE LA TERE,C§BARAUCA,S/N,USPALLATA,LAS HERAS,C§BARAUCA S/N USPALLATA LAS HERAS,-32.59108270,-69.34788360,02624-420415,E/T,"ROJAS, HEBE TERESITA"
RESTO-BAR,ACONCAGUA EXPRESS S.R.L,PEDRO MOLINA,493,CIUDAD,CAPITAL,PEDRO MOLINA 493 CIUDAD CAPITAL,-32.87928315,-68.82189956,,48/06,"OYARZUN, JOAQUIN"
HELADERIA,ASTI,VIDELA CORREAS,262,CIUDAD,CAPITAL,VIDELA CORREAS 262 CIUDAD CAPITAL,-32.87073910,-68.83753560,4305134,340/02,"PUEBLA, MARIA MERCEDES"
RESTAURANTE,CASA DE CAMPO,URQUIZA,1516,COQUIMBITO,MAIPU,URQUIZA 1516 COQUIMBITO MAIPU,-32.95327100,-68.75152430,4811605,292/11,COSTUMBRES DE CAMPO S.A.
RESTAURANTE,LA TABERNA DE NICOLAS,BALLOFETT Y CABILDO,N/T,CIUDAD,SAN RAFAEL,BALLOFETT Y CABILDO N/T CIUDAD SAN RAFAEL,-34.61289220,-68.33906220,,231/85,"MANRIQUE,JOSE y MIRIAM"
CAFETERIA,ACONCAGUA LOGISTIC EXPRESS,LAVALLE,606,SAN JOSE,GUAYMALLEN,LAVALLE 606 SAN JOSE GUAYMALLEN,-32.89192630,-68.82212020,4318356,E/T,ACONCAGUA LOGISTICEXPRES S.A.
PIZZERIA,DE UN RINCON DE LA BOCA,AV.LAS HERAS,245,MERCADO CENTRAL,CAPITAL,AV.LAS HERAS 245 MERCADO CENTRAL CAPITAL,-34.58343510,-58.40540250,,248/14,"NARVAEZ, ADRIANA LAURA"
PIZZERIA,CAPRI,AV.SAN MARTIN,279,CIUDAD,GODOY CRUZ,AV.SAN MARTIN 279 CIUDAD GODOY CRUZ,-32.92114100,-68.84711600,4244477,473/97,CAPRI S.R.L. SCACCIA LUIS F. GTE.
CAFETERIA,RISTRETTO,PELLEGRINI,40,CIUDAD,SAN RAFAEL,PELLEGRINI 40 CIUDAD SAN RAFAEL,-36.26784220,-63.16458570,,99/03,"LAGIGLIA, ARIEL"
SANDWICHERIA,KOVA,AV.COSTANERA,13,CIUDAD,GUAYMALLEN,AV.COSTANERA 13 CIUDAD GUAYMALLEN,-32.90282080,-68.80470040,,N/T,"MENDEZ,PIO HECTOR"
RESTAURANTE,TERRAZAS DEL LAGO,PARQUE GRAL.SAN MARTIN,,CIUDAD,CAPITAL,PARQUE GRAL.SAN MARTIN CIUDAD CAPITAL,-32.88980950,-68.87008680,4288815,E/T,MARIDAJE S.A.
CAFETERIA,PLAZOLETA,AV.SAN MARTIN,8,CIUDAD,CAPITAL,AV.SAN MARTIN 8 CIUDAD CAPITAL,-32.90375440,-68.84301430,4525940,44/02,"LEGLISE, RICARDO JAVIER"
RESTAURANTE,LAS VASIJAS,29 DE MAYO Y B.SUR MER,,CIUDAD,SAN MARTIN,29 DE MAYO Y B.SUR MER CIUDAD SAN MARTIN,-34.57502027,-58.53710261,,E/T,"YULEN, HUANG"
RESTAURANTE,EL RETORTU¥O,DORREGO,173,CIUDAD,GUAYMALLEN,DORREGO 173 CIUDAD GUAYMALLEN,-32.89869820,-68.82890720,4316300,417/00,"TORIANO, NORMA EDITH"
PIZZERIA,PIZZA AL TOQUE,ACCESO ESTE,3280,HIPER CARREFOUR,GUAYMALLEN,ACCESO ESTE 3280 HIPER CARREFOUR GUAYMALLEN,-32.90209140,-68.79753920,4210286,411/00,"YERDEN, DANIEL Y ALIZZI LUISA"
RESTAURANTE,NARANJA-BLUE,LAS VIRGENES,S/N,LAS PAREDES,SAN RAFAEL,LAS VIRGENES S/N LAS PAREDES SAN RAFAEL,-34.58194900,-68.40126500,0260-154684751,E/T,"CONRABY, STEPHAN"
RESTAURANTE,ALDO,SUIPACHA,693,CIUDAD,CAPITAL,SUIPACHA 693 CIUDAD CAPITAL,-34.77200350,-59.68479240,,1029/13,"FOSSAS, ALDO"
SERVICOMPRAS,ESTACION SERVICO A.C.A.,25 DE MAYO,293,CIUDAD,LA PAZ,25 DE MAYO 293 CIUDAD LA PAZ,-30.75418280,-59.63279920,02626-421026,E/T,"MARTINEZ, DARDO"
HELADERIA,FERRUCCIO SOPPELSA,AV.LAS HERAS,199,CIUDAD,CAPITAL,AV.LAS HERAS 199 CIUDAD CAPITAL,-32.88573160,-68.84071830,4234118,460/91,"SOPPELSA, DANTE Y NOEMI"
HELADERIA,FERRUCCIO SOPPELSA,LAVALLE,24,CIUDAD,CAPITAL,LAVALLE 24 CIUDAD CAPITAL,-32.88848660,-68.83828790,4380843,33/98,"SOPPELSA, DANTE"
RESTAURANTE,HOSTERIA EL ARCO,RUTA 7,KM.866,DESAGUADERO,LA PAZ,RUTA 7 KM.866 DESAGUADERO LA PAZ,-33.40303670,-67.15486200,02626-499229,85/04,"IVAERS, MARCELO JAVIER"
CANTINA,INTI HUASI,RUIZ LEAL,S/N,PARQUE GRAL.SAN MARTIN,CAPITAL,RUIZ LEAL S/N PARQUE GRAL.SAN MARTIN CAPITAL,-32.88775305,-68.86535826,4282024,E/T,"BARROS, ROSA ARGENTINA"
DISCOTECA,RITMOMANIA,OLASCOAGA,61,CIUDAD,SAN RAFAEL,OLASCOAGA 61 CIUDAD SAN RAFAEL,-35.23810120,-60.61356870,0260-4428014,129/93,"GEUNA, RODOLFO"
CAFETERIA,VICENTICA,PELLEGRINI,92,CIUDAD,CAPITAL,PELLEGRINI 92 CIUDAD CAPITAL,-32.87638358,-68.83694706,4255004,088/18,"BOSICH, CARLOS ALBERTO"
SANDWICHERIA,LAS CONDES,PEDRO VARGAS,2297,DORREGO,GUAYMALLEN,PEDRO VARGAS 2297 DORREGO GUAYMALLEN,-32.90502610,-68.81205020,4314030,E/T,"ARENAS, FERNANDO HERIBERTO"
SANDWICHERIA,MC.DONALD'S,AV.SAN MARTIN,1177,CIUDAD,CAPITAL,AV.SAN MARTIN 1177 CIUDAD CAPITAL,-32.86127400,-68.83289180,4201201,194/96,ARCOS MENDOCINOS S.A.
RESTAURANTE,LA JUNTADA PULPERIA ARGENTINA,RUTA PROV.92 Y 94,S/N,VISTA FLORES,TUNUYAN,RUTA PROV.92 Y 94 S/N VISTA FLORES TUNUYAN,-33.65098090,-69.15586470,02622-15504942,E/T,"ESTEVEZ, JOSE MANUEL"
CAF,BASILIKA,AV.ARISTIDES VILLANUEVA,332,CIUDAD,CAPITAL,AV.ARISTIDES VILLANUEVA 332 CIUDAD CAPITAL,-32.89230370,-68.85599460,4262599,141/04,"DA COSTA, HUGO MARQUES"
RESTAURANTE,JOCKEY CLUB,ESPEJO,194,CIUDAD,CAPITAL,ESPEJO 194 CIUDAD CAPITAL,-32.88932001,-68.84154625,4231347,428/98,"ALONSO, PEDRO NORBERTO"
GASTRONOMIA,OMOI,20-06911578-1,2650,PALMARES,GODOY CRUZ,20-06911578-1 2650 PALMARES GODOY CRUZ,-32.95570440,-68.85890340,261-219555,229/18,WESA S.A.
CAFETERIA,MERCADO CENTRAL,AV.LAS HERAS,245,MERCADO CENTRAL,CAPITAL,AV.LAS HERAS 245 MERCADO CENTRAL CAPITAL,-34.58343510,-58.40540250,,E/T,"BARBUZA, AGUSTIN EZEQUIEL"
RESTAURANTE,7 FUEGOS,RUTA 94,S/N,LOS SAUCES,TUNUYAN,RUTA 94 S/N LOS SAUCES TUNUYAN,-33.60390080,-69.37710840,4380021,246/15,VINES MANAHEMENT S.R.L.
CAFETERIA,ZITTO,RUTA PANAMERICANA,2650,PALMARES,GODOY CRUZ,RUTA PANAMERICANA 2650 PALMARES GODOY CRUZ,-32.95570440,-68.85890340,4526635,823/12,PERSEA S.A.
RESTAURANTE,LA ROSADA,ACCESO ESTE Y ALLAYME,N/T,CIUDAD,GUAYMALLEN,ACCESO ESTE Y ALLAYME N/T CIUDAD GUAYMALLEN,-32.88324590,-68.80815100,4317902,437/00,"ABDALA, ORLANDO PEDRO"
PIZZERIA,TREVI,AV.LAS HERAS,70,CIUDAD,CAPITAL,AV.LAS HERAS 70 CIUDAD CAPITAL,-32.88640170,-68.83897110,4233195,N/T,"DI CARO, FEDERICO Y ANTONIO"
RESTAURANTE,BODEGA RUCA MALEN,RUTA 7,KM.1059,AGRELO,LUJAN,RUTA 7 KM.1059 AGRELO LUJAN,-33.09435890,-68.92902560,5537164,558/15,BODEGA RUCA MALEN S.A.
PIZZERIA,TRENTO,LAVALLE,102,CIUDAD,CAPITAL,LAVALLE 102 CIUDAD CAPITAL,-32.88848220,-68.83681270,4256235,N/T,"GARCIA, ROBERTO"
SERVICOMPRAS,ELOY GUERERO,RUTA 7,KM986,ALTO VERDE,SAN MARTIN,RUTA 7 KM986 ALTO VERDE SAN MARTIN,-33.06752040,-68.46747270,0263-4420340,482/04,"GERRERO, ISABEL CHACON Y OTROS"
CAFETERIA,DAKAR CAF,JOSE F. MORENO,1566,CIUDAD,CAPITAL,JOSE F. MORENO 1566 CIUDAD CAPITAL,-32.88537890,-68.83273740,4201379,922/12,"TAUIL, SAMUEL"
RESTAURANTE,FINCA DECERO,BAJO LAS CUMBRES,KM.03,AGRELO,LUJAN,BAJO LAS CUMBRES KM.03 AGRELO LUJAN,-33.13007260,-68.94413420,5244797,E/T,PERMASUR S.A.
SANDWICHERIA,MR.DOG,BELGRANO,886,CIUDAD,CAPITAL,BELGRANO 886 CIUDAD CAPITAL,-32.89086643,-68.85052702,4295057,343/97,"FORNIES, ALFREDO G."
CONFITERIA,MANACO,AV.SAN JUAN,1383,CIUDAD,CAPITAL,AV.SAN JUAN 1383 CIUDAD CAPITAL,-34.62219490,-58.38552530,4259449,270/05,"VERGELIN, MARGARITA AMIRA"
RESTAURANTE,BODEGAS Y VI¥EDOS LOPEZ,OZAMIS,375,GRAL.GUTIERREZ,MAIPU,OZAMIS 375 GRAL.GUTIERREZ MAIPU,-32.96261640,-68.78426150,4972406,386/15,BODEGAS Y VI¥EDOS LOPEZ S.A.C.I.
SANDWICHERIA,SUPER PANCHO,AV.COLON,456,CIUDAD,CAPITAL,AV.COLON 456 CIUDAD CAPITAL,-32.89408160,-68.84664660,,846/12,"GRACIOTIN, CLAUDIO"
BAR,SAN REMO,AVELLANEDA,554,CIUDAD,SAN MARTIN,AVELLANEDA 554 CIUDAD SAN MARTIN,-34.66107560,-58.36697390,,730/85,"LAZZARA,FILIPPO"
CAFETERIA,TOBOK,AV.SAN JUAN,1175,CIUDAD,CAPITAL,AV.SAN JUAN 1175 CIUDAD CAPITAL,-34.62195780,-58.38263370,4242015,62/09,"RIOS, MARIA DEL CARMEN"
SANDWICHERIA,ACONCAGUA BASE CAMP,PARQUE PROVINCIAL ACONCAGUA,S/N,PARQUE ACONCAGUA,LAS HERAS,PARQUE PROVINCIAL ACONCAGUA S/N PARQUE ACONCAGUA LAS HERAS,-32.65317900,-70.01086750,,E/T,"SANCHEZ, MIGUEL ANGEL"
SANDWICHERIA,TORRE VIEJA,BLAS PARERA,1350,CIUDAD,SAN RAFAEL,BLAS PARERA 1350 CIUDAD SAN RAFAEL,-34.62370060,-68.35403220,0260-4427683,619/92,"OROZCO, FIDEL ALBERTO"
CAFETERIA,EL MANANTIAL,AV. SAN MARTIN,146,EL NIHUIL,SAN RAFAEL,AV. SAN MARTIN 146 EL NIHUIL SAN RAFAEL,-35.02742410,-68.67309900,0260-4494043,160/01,"RENDUELES, PATRICIA SANDRA"
RESTAURANTE,DON CLAUDIO,PERU,1695,CIUDAD,CAPITAL,PERU 1695 CIUDAD CAPITAL,-9.18996700,-75.01515200,4234814,354/09,"NUROA, NORMA ESTELA"
CAFETERIA,ZITTO,AV.ARISTIDES VILLANUEVA,257,CIUDAD,CAPITAL,AV.ARISTIDES VILLANUEVA 257 CIUDAD CAPITAL,-32.89227690,-68.85408510,,E/T,PERSEA S.A.
CONFITERIA,UNANUE,Av.COSTANERA Y GODOY CRUZ,N/T,CIUDAD,GUAYMALLEN,Av.COSTANERA Y GODOY CRUZ N/T CIUDAD GUAYMALLEN,-32.90282080,-68.80470040,4453557,N/T,"GUBIOTI,CARLOS Y OTRA"
CAFETERIA,BONAFIDE,AV.COLON,136,CIUDAD,CAPITAL,AV.COLON 136 CIUDAD CAPITAL,-32.89480510,-68.84230390,4263491,E/T,TRADING EXPRESS S.A.
CAFETERIA,TOSTADERO PUERTO RICO,CORDOBA,27,CIUDAD,CAPITAL,CORDOBA 27 CIUDAD CAPITAL,-31.42008330,-64.18877610,4231129,192/05,"GONZALEZ, ROXANA VANINA"
CAF-BAR,DRAGON BOWLING,BV.PEREZ CUESTA,3280,MZA.PLAZA SHOPPING,GUAYMALLEN,BV.PEREZ CUESTA 3280 MZA.PLAZA SHOPPING GUAYMALLEN,-32.90195070,-68.79746810,4214111,333/01,"RODRIGUEZ, CLAUDIO CESAR"
CAFETERIA,RANNOïS,AV. SAN MARTIN,1402,CIUDAD,CAPITAL,AV. SAN MARTIN 1402 CIUDAD CAPITAL,-32.88726020,-68.83857950,4203059,E/T,AROMAS DE CAF S.A.
RESTAURANTE,CASA DE CONTRATISTA,ALTE.BROWN,1761,CHACRAS DE CORIA,LUJAN,ALTE.BROWN 1761 CHACRAS DE CORIA LUJAN,-33.00524450,-68.88619060,4965967,E/T,"IANARDI, JOSE EDUARDO"
RESTAURANTE,MAXILOMO,PASO DE LOS ANDES,1545,CIUDAD,GODOY CRUZ,PASO DE LOS ANDES 1545 CIUDAD GODOY CRUZ,-32.91015870,-68.85992250,156528130,783/87,"PAOLASSO, LUIS"
RESTAURANTE,BAIRUT,ARTIGAS,298,SAN JOSE,GUAYMALLEN,ARTIGAS 298 SAN JOSE GUAYMALLEN,-32.88852470,-68.82367540,261-4203625,E/T,POWER STAR S.A.
CAFETERIA,CURAZAO,GARIBALDI,95,CIUDAD,CAPITAL,GARIBALDI 95 CIUDAD CAPITAL,-32.89098830,-68.83742080,4203456,E/T,"SUAREZ, ERNESTO ALEJANDRO"
SANDWICHERIA,FRAMBEL,AV.SAN MARTIN,1671,CIUDAD,CAPITAL,AV.SAN MARTIN 1671 CIUDAD CAPITAL,-32.88378530,-68.83738310,4234808,554/12,"BELTRANO, FRANCO MAURICIO"
RESTAURANTE,CAMILO,LA SUPERIORA,S/N,LA CONSULTA,SAN CARLOS,LA SUPERIORA S/N LA CONSULTA SAN CARLOS,-33.74484830,-69.12288880,02622-15435897,E/T,"GHILARDI, RAQUEL MIRTA"
BAR,MENDOZA RAFFTING,RUTA 7,KM.1104,POTRERILLOS,LUJAN,RUTA 7 KM.1104 POTRERILLOS LUJAN,-32.91611970,-69.23854650,0351-155162094,E/T,"BEGIL, HUGO DANIEL"
HELADERIA,CHINI,AVELLANEDA,360,CIUDAD,CAPITAL,AVELLANEDA 360 CIUDAD CAPITAL,-34.66107560,-58.36697390,,30/87,"BORELLO,BRUNO"
CAFETERIA,BONAFIDE,ARAOZ,S/N,MAYOR DRUMOND,LUJAN,ARAOZ S/N MAYOR DRUMOND LUJAN,-33.00487890,-68.84996100,,097/18,CAF DE LA AVENIDA S.A.
CAF-HELADERIA,CHALET SUIZO HELVETIA,RUTA PANAMERICANA,KM.30,CIUDAD,LAS HERAS,RUTA PANAMERICANA KM.30 CIUDAD LAS HERAS,-32.85180220,-68.84127630,,66/92,"BRUNO, RIZZARDI"
RESTAURANTE,LA PECERA,SAN ISIDRO,602,CIUDAD,RIVADAVIA,SAN ISIDRO 602 CIUDAD RIVADAVIA,-31.55484270,-68.56136280,,865/94,PANELLA Y MIRANDA S.DE HECHO
CAFETERIA,ALCHEMIE,GARIBALDI Y RIOJA,,CIUDAD,CAPITAL,GARIBALDI Y RIOJA CIUDAD CAPITAL,-32.88981130,-68.83562320,4290599,934/12,GIPEN S.A.
RESTAURANTE,TOMMASO TRATTORIA,AV.SARMIENTO,762,CIUDAD,CAPITAL,AV.SARMIENTO 762 CIUDAD CAPITAL,-32.88902400,-68.84914610,4296153,E/T,"VAQUIE, LUIS ERNESTO"
RESTAURANTE,AYELEN,RUTA 7,S/N,PENITENTES,LAS HERAS,RUTA 7 S/N PENITENTES LAS HERAS,-32.84165260,-69.84083680,02624-430229,E/T,"GARCIA, ALEJANDRO MIGUEL"
RESTAURANTE,LA CASA VIEJA,BELGRANO,1227,CIUDAD,CAPITAL,BELGRANO 1227 CIUDAD CAPITAL,-32.87744340,-68.84702875,4257727,831/15,OHANA S.A.
CAFETERIA,LA TERRACITA,AV.JUAN B.JUSTO,701,CIUDAD,CAPITAL,AV.JUAN B.JUSTO 701 CIUDAD CAPITAL,-32.88356460,-68.85867500,152160119,E/T,"CASTILLO, FERNANDO GERMAN"
CAFETERIA,LUCA`S,AV.COLON,418,CIUDAD,CAPITAL,AV.COLON 418 CIUDAD CAPITAL,-32.89418820,-68.84603770,4234643,098/14,"GARCIA JOFRE, LUCAS MANUEL"
PARRILLADA,FACUNDO,AV.SARMIENTO,641,CIUDAD,CAPITAL,AV.SARMIENTO 641 CIUDAD CAPITAL,-32.88899070,-68.84756120,4202866,019/01,"BERTRAN, RICARDO, Y OTROS"
CONFITERIA,LOMORO,SAN MIGUEL ESQ.ROCCA,N/T,CIUDAD,LAS HERAS,SAN MIGUEL ESQ.ROCCA N/T CIUDAD LAS HERAS,-32.85180220,-68.84127630,4271517,452/00,"ORTEGA, ESTELA SILVIA"
BAR,OPESSA,RUTA 7,S/N,USPALLATA,LAS HERAS,RUTA 7 S/N USPALLATA LAS HERAS,-32.60163020,-69.35134280,02624-420144,519/01,"CORRADINI, DIEGO FERNANDO"
BAR,JAMAICA,AV.SAN MARTIN,1098,CIUDAD,TUNUYAN,AV.SAN MARTIN 1098 CIUDAD TUNUYAN,-33.57859700,-69.01620260,,193/05,"CAMERUCCI,IRENE TERESA"
CAF,NH CORDILLERA,AV.ESPA¥A,1342,CIUDAD,CAPITAL,AV.ESPA¥A 1342 CIUDAD CAPITAL,-32.88753520,-68.84145160,4416464,N/T,LATINA DE GESTION HOTELERA S.A.
CAFETERIA,BONAFIDE,AV.SAN MARTIN,1483,CIUDAD,CAPITAL,AV.SAN MARTIN 1483 CIUDAD CAPITAL,-32.88609080,-68.83794630,,E/T,TRADING EXPRESS S.A.
RESTAURANTE,RUTAS DEL SUR,RUTA 40 NORTE,KM.327,,MALARGUE,RUTA 40 NORTE KM.327 MALARGUE,-35.47909660,-69.58524020,0260-4470251,E/T,RUTAS DEL SUR S.R.L.
HELADERIA,FERRUCCIO SOPPELSA,TERMINAL DEL SOL,,DORREGO,GUAYMALLEN,TERMINAL DEL SOL DORREGO GUAYMALLEN,-32.89489780,-68.82907250,,194/06,SCORE S.A.
RESTAURANTE,LOS GALLEGOS,COLOMBRES,235,CIUDAD,LUJAN,COLOMBRES 235 CIUDAD LUJAN,-33.03843100,-68.87690500,4983668,830/15,MANUEL Y ANGEL MANZANO
CAF,EL PUENTE,SGO.DEL ESTERO,1786,CIUDAD,GODOY CRUZ,SGO.DEL ESTERO 1786 CIUDAD GODOY CRUZ,-32.90282170,-68.86438750,,N/T,"ORTIZ,EXEQUIEL"
CAFETERIA,CROCANTE,AV.SAN MARTIN,1814,CIUDAD,GODOY CRUZ,AV.SAN MARTIN 1814 CIUDAD GODOY CRUZ,-32.90626570,-68.84364690,4240205,497/92,"RICHARDI, SERGIO"
HELADERIA,SAN FELIPE,LORIA,5801,CHACRAS DE CORIA,LUJAN,LORIA 5801 CHACRAS DE CORIA LUJAN,-32.98450570,-68.88248580,4960398,N/T,"JOSE, OSCAR"
CAFETERIA,ESPACIO DE ARTE GABRIELA SCARDO,AV.SAN MARTIN,1899,CIUDAD,CAPITAL,AV.SAN MARTIN 1899 CIUDAD CAPITAL,-32.88105260,-68.83670720,4204679,E/T,"SCARDO, MARIA GABRIELA"
CONFITERIA,REPARITO,AV.SAN MARTIN,948,CIUDAD,TUNUYAN,AV.SAN MARTIN 948 CIUDAD TUNUYAN,-33.58023630,-69.01643190,,430/07,"AZZAM, NAHUEL"
RESTAURANTE,LA ESQUINA,SAN MARTIN,320,CIUDAD,TUNUYAN,SAN MARTIN 320 CIUDAD TUNUYAN,-33.58712310,-69.01599380,,E/T,EL EMCUENTRO S.A.
PADDLE-SANDWI,LAS VAYAS PADDLE,SARMIENTO,2945,LUZURIAGA,MAIPU,SARMIENTO 2945 LUZURIAGA MAIPU,-32.94454420,-68.81399380,4521295,198/96,"SALAMONE, ANTONINO"
CAF-BAR,AQUARIUM,AV.SAN JUAN,477,CIUDAD,CAPITAL,AV.SAN JUAN 477 CIUDAD CAPITAL,-34.62169920,-58.37244720,4233575,711/87,"MUNIBES,EDUARDO HUGO"
HELADERIA,FERRUCCIO SOPPELSA,AV.SAN MARTIN SUR,450,CIUDAD,GODOY CRUZ,AV.SAN MARTIN SUR 450 CIUDAD GODOY CRUZ,-32.92869630,-68.84933240,4223919,N/T,FERRUCCIO SOPPELSA S.R.L.
PIZZERIA,LA VENDIMIA,9 DE JULIO,175,CIUDAD,SAN MARTIN,9 DE JULIO 175 CIUDAD SAN MARTIN,-34.60733190,-58.38162520,0263-4420924,168/84,"RUIZ, GUILLERMO A."
SANDWICHERIA,TACO BAR EFECTO TEQUILA,VIAMONTE,5060,CHACRAS DE CORIA,LUJAN,VIAMONTE 5060 CHACRAS DE CORIA LUJAN,-33.00385330,-68.88749980,4244957,518/01,"ZABALZA, ALFREDO GREGORIO"
RESTAURANTE,WNDY II,RUTA PANAMERICANA,KM. 998,BUEN ORDEN,SAN MARTIN,RUTA PANAMERICANA KM. 998 BUEN ORDEN SAN MARTIN,-33.08064970,-68.47057000,0263-4423965,E/T,"ORTS, MARIA TERESA"
RESTAURANTE,SAZON RESTAURANTE VEGETARIANO,RIVADAVIA,224,CIUDAD,CAPITAL,RIVADAVIA 224 CIUDAD CAPITAL,-32.89126714,-68.84261965,261-5060962,E/T,"FARRUGIA, ANGEL PABLO"
CAFETERIA,PALERMO SOHO,AV.SAN JUAN,1348,CIUDAD,CAPITAL,AV.SAN JUAN 1348 CIUDAD CAPITAL,-34.62246660,-58.38507280,4233377,830/12,"SABORIDO, PEDRO"
PANCHERIA,VACACIONES,SARMIENTO,542,CIUDAD,SAN MARTIN,SARMIENTO 542 CIUDAD SAN MARTIN,-31.05975980,-61.16802700,,019/93,"MONTES,JOSE RAMON"
HELADERIA,SERGIO HELADOS,SALTA Y P. MENDOCINAS,S/N,CIUDAD,SAN MARTIN,SALTA Y P. MENDOCINAS S/N CIUDAD SAN MARTIN,-32.88945870,-68.84583860,,018/93,"ALVAREZ, SERGIO DIEGO"
COMEDOR,COMEDOR JURIDICO,AV.SAN MARTIN,1827,CIUDAD,TUNUYAN,AV.SAN MARTIN 1827 CIUDAD TUNUYAN,-33.57041520,-69.01621660,,308/08,"RETAMALES, ESTER ADELA"
HELADERIA,MICHEL,AV.ESPA¥A,598,CIUDAD,LUJAN,AV.ESPA¥A 598 CIUDAD LUJAN,8.28769170,-82.86451670,4982745,313/85,"MICHELINI, LUIS OSCAR"
HELADERIA,LA DELICIA DEL BOULEVAR,AV.HIPOLITO IRIGOYEN,1594,CIUDAD,SAN RAFAEL,AV.HIPOLITO IRIGOYEN 1594 CIUDAD SAN RAFAEL,-34.60935310,-68.34940690,0260-4435558,265/15,HELADERIA LA DELICIA DEL BOULEVAR S.H.
CAFETERIA,MADERO,AV.COLON,740,CIUDAD,CAPITAL,AV.COLON 740 CIUDAD CAPITAL,-32.89345380,-68.84999410,,E/T,"RODRIGUEZ, SERGIO HORACIO"
RESTAURANTE,LA MARCHIGIANA,PATRICIAS MENDOCINAS,1550,CIUDAD,CAPITAL,PATRICIAS MENDOCINAS 1550 CIUDAD CAPITAL,-32.88501100,-68.84206260,4230751,402/08,LE MARCHI S.R.L.
NO ESTA LEGAJO,NOGUEROL,MDO.COOP.GLLEN.,S/N,CIUDAD,GUAYMALLEN,MDO.COOP.GLLEN. S/N CIUDAD GUAYMALLEN,-32.90282080,-68.80470040,,,"NOGUEROL, MANUEL"
CAFETERIA,COOKERS,J.V.GONZALEZ,450,HIPER.LIBERTAD,GODOY CRUZ,J.V.GONZALEZ 450 HIPER.LIBERTAD GODOY CRUZ,-32.92862680,-68.85839630,,321/05,"QUIROGA, SANTIAGO GERMAN"
CONFITERIA,SCHARBEL S.R.L.,9 DE JULIO,230,CIUDAD,SAN MARTIN,9 DE JULIO 230 CIUDAD SAN MARTIN,-34.60733190,-58.38162520,,097/87,"CIANCIO, LUIS Y OTRO (E.MASMAN,E.ESPETXE,L.CIANCIO"
HELADERIA,VILA,SAN ISIDRO,660,CIUDAD,RIVADAVIA,SAN ISIDRO 660 CIUDAD RIVADAVIA,-33.19474275,-68.46487705,02623-442766,N/T,"VILA, JOSE MARIA"
CAF,ELENA,GRAL.PAZ,262,MERCADO CENTRAL,CAPITAL,GRAL.PAZ 262 MERCADO CENTRAL CAPITAL,-32.88471744,-68.84123215,,513/01,"MONTOYA, LOURDES RUFINA"
CAFETERIA,LA POSTA,TERNINAL DEL SOL ALA NORTE,,VILLA NUEVA,GUAYMALLEN,TERNINAL DEL SOL ALA NORTE VILLA NUEVA GUAYMALLEN,-32.90131000,-68.78266140,155182873,E/T,"MESIAS, ALBERTO"
RESTAURANTE,LA GULITA,AEROPUERTO GABRIELLI,S/N,CIUDAD,LAS HERAS,AEROPUERTO GABRIELLI S/N CIUDAD LAS HERAS,-32.82773630,-68.79843800,4487128,N/T,"PEDERNERA,LEONOR"
PARRILLADA,ANASTASIO,AV.JUAN B.JUSTO,376,CIUDAD,CAPITAL,AV.JUAN B.JUSTO 376 CIUDAD CAPITAL,-32.88406660,-68.85411650,,E/T,TAURUS S.A.
SANDWICHERIA,MIRADOR,COLON,45,CIUDAD,GODOY CRUZ,COLON 45 CIUDAD GODOY CRUZ,-32.92517770,-68.84514880,,025/05,"MONTENEGRO, MARIA LAURA"
BAR,MOLOKAI,BELGRANO,1169,CIUDAD,CAPITAL,BELGRANO 1169 CIUDAD CAPITAL,-32.88810242,-68.84901464,4254808,E/T,"PIUZZI, VICTOR EMILIANO"
CAF,KEOPS,AV.BULOGNE SUR MER,64,CIUDAD,SAN MARTIN,AV.BULOGNE SUR MER 64 CIUDAD SAN MARTIN,-34.68774570,-58.52132880,,E/T,
PIZZERIA,LUCES,AV.DEL LIBERTADOR,12,PALMIRA,SAN MARTIN,AV.DEL LIBERTADOR 12 PALMIRA SAN MARTIN,-33.05179680,-68.56142740,0263-4461024,068/93,"LUCERO, ADOLFO Y LUIS"
RESTAURANTE,PUESTO DIAZ,GRAL.ACHA,S/N,COLONIA ITALIA,LAVALLE,GRAL.ACHA S/N COLONIA ITALIA LAVALLE,-37.36879380,-64.59986720,155255522,E/T,"DIAZ, DANIEL ANTONIO"
CONFITERIA,EL REFUGIO,ARISTOBULO DEL VALLE,19/61,CIUDAD,RIVADAVIA,ARISTOBULO DEL VALLE 19/61 CIUDAD RIVADAVIA,-33.19497520,-68.46641290,,218/10,EMPRENDIMIENTO SAN ISIDRO S.A.
CAFETERIA,EL FARO,AV.ESPA¥A,948,CIUDAD,CAPITAL,AV.ESPA¥A 948 CIUDAD CAPITAL,-32.89178140,-68.84264270,4250333,1049/09,EL FARO BISTRO S.A.
LOMITERIA,4 HERMANOS,AV.SAN MARTIN,1801,CIUDAD,TUNUYAN,AV.SAN MARTIN 1801 CIUDAD TUNUYAN,-33.57069510,-69.01656780,02622-422110,414/07,"MOCAYAR, JOSE"
SERVICOMPRAS,OCTANO,AV.SAN MARTIN SUR,575,CIUDAD,GODOY CRUZ,AV.SAN MARTIN SUR 575 CIUDAD GODOY CRUZ,-32.93026050,-68.85034380,4350303,E/T,OCTANO S.A
RESTO-BAR,DANIEL ALESIO EXPEDICIONES,PARQUE PROVINCIAL ACONCAGUA,S/N,PARQUE ACONCAGUA,LAS HERAS,PARQUE PROVINCIAL ACONCAGUA S/N PARQUE ACONCAGUA LAS HERAS,-32.65317900,-70.01086750,,E/T,"ALESIO, DANIEL DARIO"
RESTAURANTE,DON VALENTIN BISTRO,CALLE SARMIENTO,,COLONIA LAS ROSAS,TUNUYAN,CALLE SARMIENTO COLONIA LAS ROSAS TUNUYAN,-33.59998280,-69.07605780,155171522,416/07,"MARCHANT, ANGELICA INES"
RESTAURANTE,"BIZZARRO,COMPLEJO NINA",RUTA PANAMERICANA,S/N,EL CHALLAO,LAS HERAS,RUTA PANAMERICANA S/N EL CHALLAO LAS HERAS,-32.85239040,-68.89623140,4964114,523/00,"ALCARAZ, DANIEL"
HELADERIA,ASTI,JORGE A.CALLE,487,CIUDAD,CAPITAL,JORGE A.CALLE 487 CIUDAD CAPITAL,-32.86871440,-68.85128850,4253112,538/02,"DAPINO, JUAN CESAR"
PIZZERIA,MASCALZZONE,SAN LORENZO,230,CIUDAD,CAPITAL,SAN LORENZO 230 CIUDAD CAPITAL,-32.89343810,-68.84327006,261-156789468,E/T,"PRADO, SANDRA VANESA"
CONFITERIA,LA GUANACA,RUTA PANAMERICANA,S/N,CIUDAD,LAS HERAS,RUTA PANAMERICANA S/N CIUDAD LAS HERAS,-32.85180220,-68.84127630,4290096,28*01,"FAINGOLD, MARCOS"
CAFETERIA,OPESSA,RUTA 7,KM.1146,USPALLATA,LAS HERAS,RUTA 7 KM.1146 USPALLATA LAS HERAS,-32.61465800,-69.35035900,153654795,E/T,OPESSA
RESTAURANTE,LOS DOS AMIGOS,SANTA FE,402,CIUDAD,CAPITAL,SANTA FE 402 CIUDAD CAPITAL,-31.61065780,-60.69729400,,N/T,"MARINARO,ANGEL"
RESTAURANTE,ARABIAN FOOD TRUCKS,MITRE,1315,SAN JOSE,GUAYMALLEN,MITRE 1315 SAN JOSE GUAYMALLEN,-32.88620980,-68.81457600,,E/T,VERTIENTES ANDINAS S.R.L.
PARRILLADA,ARTURITO,CHILE,1515,CIUDAD,CAPITAL,CHILE 1515 CIUDAD CAPITAL,-35.67514700,-71.54296900,4259925,1125/13,LOS LE¥OS S.A.
RESTAURANTE,EL MONTA¥EZ,RUTA PROVINCIAL 94,S/N,EL MANZANO HISTORICO,TUNUYAN,RUTA PROVINCIAL 94 S/N EL MANZANO HISTORICO TUNUYAN,-33.60192980,-69.38365740,,E/T,"FERNANDEZ CASTA¥O, ENRIQUE"
PIZZERIA,PIZZA MARCA,AV.HIPOLITO IRIGOYEN,265,CIUDAD,SAN RAFAEL,AV.HIPOLITO IRIGOYEN 265 CIUDAD SAN RAFAEL,-34.61521700,-68.33335600,0260-4435700,611/11,"MARTINEZ, MARCELO DARIO"
HELADERIA,IMPERIAL,AGUADO,146,CIUDAD,CAPITAL,AGUADO 146 CIUDAD CAPITAL,-32.87115220,-68.84726730,,85/83,"MORENO,JOSE EMILIO"
RESTAURANTE,AMARE,AV.HIPOLITO IRIGOYEN,1130,CIUDAD,SAN RAFAEL,AV.HIPOLITO IRIGOYEN 1130 CIUDAD SAN RAFAEL,-34.61119580,-68.34387190,0260-4439320,E/T,"MARIM, VALERIA ANA"
HELADERIA,CHINI,AV.ESPA¥A,1492,CIUDAD,CAPITAL,AV.ESPA¥A 1492 CIUDAD CAPITAL,-32.88599300,-68.84104400,4255792-155155856,1120/14,SONDRIO SRL
RESTAURANTE,URBAN,LOS INDIOS,S/N,EL CEPILLO,SAN CARLOS,LOS INDIOS S/N EL CEPILLO SAN CARLOS,-33.80381345,-69.08385479,02622-451579/088/598,378/10,BODEGAS Y VI¥EDOS FOURNIER S.A.
SANDWICHERIA,MENDOZA SANDWICH,BELGRANO,1293,CIUDAD,CAPITAL,BELGRANO 1293 CIUDAD CAPITAL,-32.88672371,-68.84893085,4292424,959/14,"CUCHIETTI, HECTOR CALIXTO"
RESTAURANTE,LA STAZIONE,RIVADAVIA,38,COSTA DE ARAUJO,LAVALLE,RIVADAVIA 38 COSTA DE ARAUJO LAVALLE,-32.75861190,-68.39438280,02634-494177,E/T,"VELAZQUEZ, ELENA DEL CARMEN"
HELADERIA,CRISTAL,CORONEL DIAZ,551,CIUDAD,CAPITAL,CORONEL DIAZ 551 CIUDAD CAPITAL,-32.86667990,-68.82665060,4304013,N/T,"ZANELLA,JUAN DOMINGO"
CONF.BAILABLE,VANGELIS,RUTA PANAMERICANA,S/N,,LUJAN,RUTA PANAMERICANA S/N LUJAN,-34.56333120,-59.12088050,,456/87,"RUANO,RUBEN Y PETRINI,GUSTAVO"
ROTISERIA,CANTINA COSTA AZUL,SAN MARTIN,361,CIUDAD,MAIPU,SAN MARTIN 361 CIUDAD MAIPU,-32.98473820,-68.78432590,4811845,161/05,"JOFRE, ELSA GLADYS"
CAFETERIA,SANTI,AV.ROQUE SAENZ PE¥A,521,CIUDAD,CAPITAL,AV.ROQUE SAENZ PE¥A 521 CIUDAD CAPITAL,-32.88057280,-68.85548900,4236096,E/T,"PANTOJA, SANTIAGO"
CAFETERIA,LOS LE¥OS,AV.ALVEAR ESTE,836,CIUDAD,GRAL.ALVEAR,AV.ALVEAR ESTE 836 CIUDAD GRAL.ALVEAR,-34.97796800,-67.67892970,,094/14,"PEREZ, MAURICIO GABRIEL"
RESTAURANTE,TACO BAR,GUTIERREZ,406,CIUDAD,CAPITAL,GUTIERREZ 406 CIUDAD CAPITAL,-32.88744913,-68.84422005,4230949,119/06,EFECTO TEQUILA S.R.L.
CAFETERIA,DUNKEN,ESPEJO,19,CIUDAD,CAPITAL,ESPEJO 19 CIUDAD CAPITAL,-32.88923124,-68.83944115,5628180,E/T,9/1/2019
CAFETERIA,CAFETERIA,CATAMARCA,148,CIUDAD,CAPITAL,CATAMARCA 148 CIUDAD CAPITAL,-28.46958100,-65.77954410,,523/08,
BAR,BULEVAR OESTE,DEAN FUNES,10,CIUDAD,SAn RAFAEL,DEAN FUNES 10 CIUDAD SAn RAFAEL,-34.60765170,-68.35618060,,E/T,"SANCHEZ, OSVALDO"
SANDWICHERIA,BELGRANO SANDWICHS,BELGRANO,1293,CIUDAD,CAPITAL,BELGRANO 1293 CIUDAD CAPITAL,-32.88671827,-68.84891790,4290025,825/12,EURODOC S.A.
RESTAURANTE,TOMILLO,AV.LOS CONDORES,S/N,POTRERILLOS,LUJAN,AV.LOS CONDORES S/N POTRERILLOS LUJAN,-32.96196100,-69.19656260,,E/T,"WATLE, ALBERTO"
RESTAURANTE,EL PINO,URQUIZA,70,TUPUNGATO,TUPUNGATO,URQUIZA 70 TUPUNGATO TUPUNGATO,-33.36333890,-69.14266870,,228/06,"LASPINA, MARCELO FABIAN"
SANDWICHERIA,MR.DOG,GARIBALDI,47,CIUDAD,CAPITAL,GARIBALDI 47 CIUDAD CAPITAL,-32.89093141,-68.83851868,4350375,130/92,"FORNIES, ALFREDO G."
CAFETERIA,BUTE,ESPEJO,501,CIUDAD,CAPITAL,ESPEJO 501 CIUDAD CAPITAL,-32.88810840,-68.84563205,4233661,821/15,12 COPAS S.A.
RESTAURANTE,VALLE DEL TUPUNGATO,BELGRANO,542,CIUDAD,TUPUNGATO,BELGRANO 542 CIUDAD TUPUNGATO,-33.37280360,-69.14755830,,N/T,"SOLUSTRI, GUALTERIO"
RESTAURANTE,NUEVO HORIZONTE,MDO.COOP.GLLEN.,S/N,CIUDAD,GUAYMALLEN,MDO.COOP.GLLEN. S/N CIUDAD GUAYMALLEN,-32.90282080,-68.80470040,,649/85,"KNAUS,DAVID ALEJANDRO"
RESTAURANTE,IL PICOLO,RUTA 82,KM.39,CACHEUTA,LUJAN,RUTA 82 KM.39 CACHEUTA LUJAN,-33.01382300,-69.11730400,155155452,E/T,"VERGAGNI, DANIEL"
CAF-POOL,FAUSTO,R.ESCALADA Y T. THOMAS,S/N,CIUDAD,SAN MARTIN,R.ESCALADA Y THOMAS CIUDAD SAN MARTIN,-33.08681300,-68.47311360,,395/85,"MAZZA,ANTONIO"
CHOCOLATERIA,BRILLAT SAVARIN,AV.JUAN B.JUSTO,135,CIUDAD,CAPITAL,AV.JUAN B.JUSTO 135 CIUDAD CAPITAL,-32.88383850,-68.85064670,4234166,E/T,J.J.C. S.A.
SANDWICHERIA,ARUCA,RIVADAVIA,402,CIUDAD,CAPITAL,RIVADAVIA 402 CIUDAD CAPITAL,-32.89086118,-68.84499908,,416/91,SANCHEZ RAUL OSCAR Y JULIAN A. MOMO
CAFETERIA,BIANCO & NERO,BALCARCE,735,PORTAL LOS ANDES,GODOY CRUZ,BALCARCE 735 PORTAL LOS ANDES GODOY CRUZ,-32.91772640,-68.84085710,4248089,980/13,ANTONIOLI S.A.
BAR,BROD,BESARES,833,CHACRAS DE CORIA,LUJAN,BESARES 833 CHACRAS DE CORIA LUJAN,-32.98086100,-68.87252020,,107/19,"BRESOLIN, FRANCO CAMILO"
RESTO-BAR,FIVE STARS,LAVALLE,35,CIUDAD,CAPITAL,LAVALLE 35 CIUDAD CAPITAL,-32.88907080,-68.83805630,4202599,1034/13,"PEREYRA, HECTOR OMAR"
RESTAURANTE,ENTRE CERROS,RUTA 89,S/N,POTRERILLOS,LUJAN,RUTA 89 S/N POTRERILLOS LUJAN,-32.95967820,-69.20597500,155116535,E/T,"OTTONE, ENRIQUE CARLOS"
VENTA COMIDAS,EL CALAMAR,GRAL.PAZ,262,MERCADO CENTRAL,CAPITAL,GRAL.PAZ 262 CAPITAL,-32.88458782,-68.84123215,,463/02,"ALDAO, RUBEN JOSE"
CAF,DE LA GALERIA,AV.SAN JUAN,1420,CIUDAD,CAPITAL,AV.SAN JUAN 1420 CIUDAD CAPITAL,-34.62254240,-58.38609020,4595892,218/97,"ELLENA,GLADYS"
PIZZERIA,LA COSA NOSTRA,AV.BULOGNE SUR MER,698,CIUDAD,SAN MARTIN,AV.BULOGNE SUR MER 698 CIUDAD SAN MARTIN,-34.69211400,-58.51493550,0263-4429888,76/06,"CABALLO, MARCOS SEBASTIAN"
RESTAURANTE,BUTE PLAZA,9 DE JULIO,1126,CIUDAD,CAPITAL,9 DE JULIO 1126 CIUDAD CAPITAL,-32.89000077,-68.84076275,0261-4233661,E/T,12 COPAS S.A.
CAFETERIA,LAS DUELAS,PASEO PELLEGRINI,190,CIUDAD,SAN RAFAEL,PASEO PELLEGRINI 190 CIUDAD SAN RAFAEL,-34.61289220,-68.33906220,0260-4439127,E/T,"BIANCHI, GIANINA DEL CARMEN"
CAFETERIA,MINIMARKET SHELL,AV.COLON,194,CIUDAD,CAPITAL,AV.COLON 194 CIUDAD CAPITAL,-32.89484820,-68.84297330,,519/03,"FLAMARIQUE, GUILLERMO DANIEL"
CAF,ROMA,AV.MITRE,660,CIUDAD,CAPITAL,AV.MITRE 660 CIUDAD CAPITAL,-32.89453570,-68.84607220,4253427,542/02,"PEREYRA, ADOLFO MARCOS"
CAF,EL SITIO,ENTRE RIOS,38,CIUDAD,CAPITAL,ENTRE RIOS 38 CIUDAD CAPITAL,-32.88582110,-68.83765830,4200381,069/05,"MELAJ, FERNANDO ANDRES"
CAFETERIA,ESTACION DE SERVICIO A.C.A.,RECONQUISTA Y GOB.VIDELA,S/N,DORREGO,GUAYMALLEN,RECONQUISTA Y GOB.VIDELA S/N DORREGO GUAYMALLEN,-32.94437200,-68.74912400,4317336,84/04,"MARTINEZ, DARDO"
BAR,LA PE¥A,LA TOTORA,S/N,EL ALGARROBAL,LAS HERAS,LA TOTORA S/N EL ALGARROBAL LAS HERAS,-32.84034910,-68.77570680,,N/T,
HELADERIA,SEU TU,PERU,2906,CIUDAD,CAPITAL,PERU 2906 CIUDAD CAPITAL,-9.18996700,-75.01515200,4305754,E/T,GALBA ARGENTINA S.A.
CAF-BAR,EL GRADUADO,CATAMARCA,157,CIUDAD,CAPITAL,CATAMARCA 157 CIUDAD CAPITAL,-28.46958100,-65.77954410,5201642,E/T,"DIAZ, LEANDRO"
BALNEARIO,LA GRUTA-LA TOTORA (BALNEARIO),PASO HONDO,S/N,EL ALGARROBAL,LAS HERAS,PASO HONDO S/N EL ALGARROBAL LAS HERAS,-32.81915940,-68.75923540,,N/T,"PANASITI,DOMINGO"
RESTAURANTE,DEMETRIO,AV.HIPOLITO IRIGOYEN,1600,CIUDAD,SAN RAFAEL,AV.HIPOLITO IRIGOYEN 1600 CIUDAD SAN RAFAEL,-34.60923300,-68.34971130,0260-4428678,122/01,"RIOS, WALTER ALFREDO"
HELADERIA,GIUNTA,PELLEGRINI,1388,CIUDAD,GODOY CRUZ,PELLEGRINI 1388 CIUDAD GODOY CRUZ,-32.90876170,-68.86048120,4273868,N/T,"GIUNTA,FERNANDO"
RESTAURANTE,EL MERCADITO,VIAMONTE,4961,CHACRAS DE CORIA,LUJAN,VIAMONTE 4961 CHACRAS DE CORIA LUJAN,-32.99027890,-68.88531510,4962267,E/T,ALFOZ S.A.
COMEDOR,EL CAMIONERO,RUTA NAC.N§7,866,DESAGUADERO,LA PAZ,RUTA NAC.N§7 866 DESAGUADERO LA PAZ,-16.48968900,-68.11929360,,E/T,"SALAS, NORMA ESTER"
COMEDOR,KASKOTE,ALBERDI,43,CIUDAD,TUPUNGATO,ALBERDI 43 CIUDAD TUPUNGATO,-33.36829480,-69.14653580,,E/T,SESADI S.A.
SNACK-BAR,DOCTOR NADA,LIBERTADOR,65,CIUDAD,SAN RAFAEL,LIBERTADOR 65 CIUDAD SAN RAFAEL,-34.61705200,-68.33002030,0260-4425116,113/01,"TORINO, HECTOR FABIAN"
CAF,CUCA BAR,ALVEAR OESTE,255,CIUDAD,GRAL.ALVEAR,ALVEAR OESTE 255 CIUDAD GRAL.ALVEAR,-34.97789720,-67.69269210,02625-425771,364/07,"NASPI, NESTOR DANIEL"
CAFETERIA,LOS OLIVOS,VIAMONTE Y LARREA,S/N,CHACRAS DE CORIA,LUJAN,VIAMONTE Y LARREA S/N CHACRAS DE CORIA LUJAN,-32.98855850,-68.88488730,,157/08,"ALFONSO, VICTOR MIGUIEL"
CAFETERIA,CAF DE SIEMPRE,AV.ESPA¥A,1241,CIUDAD,CAPITAL,AV.ESPA¥A 1241 CIUDAD CAPITAL,-32.88872660,-68.84143450,4204427,E/T,"DIP, GLORIA IRIS"
RESTAURANTE,VITRO-PARK HYATT HOTEL,CHILE,1124,CIUDAD,CAPITAL,CHILE 1124 CIUDAD CAPITAL,-35.67514700,-71.54296900,4411234/5,N/T,PARK HYATT HOTEL LEG.1
CONFITERIA,CALIFORNIA,PADRE VAZQUEZ,257,CIUDAD,MAIPU,PADRE VAZQUEZ 257 CIUDAD MAIPU,-32.98316120,-68.78835750,4813029,095/05,"GONZALEZ, GLADYS GENOVEVA"
CAF-BAR,Y.P.F. FULL,AV.HIPOLITO IRIGOYEN,515,CIUDAD,SAN RAFAEL,AV.HIPOLITO IRIGOYEN 515 CIUDAD SAN RAFAEL,-34.61427100,-68.33651260,0260-4436807,124/01,OPESSA
DISCOTECA,NOTRE DAME,AVELLANEDA,2962,CIUDAD,GUAYMALLEN,AVELLANEDA 2962 CIUDAD GUAYMALLEN,-32.90282080,-68.80470040,,866/85,"ROMANO, ANTONIO VICENTE Y OTRO"
CARRITO-BAR,DON PEDRO,R.PROV.61,S/N,CARRIZAL DE ABAJO,LUJAN,R.PROV.61 S/N CARRIZAL DE ABAJO LUJAN,-33.32171140,-68.75980310,,N/T,"CUELLO,PEDRO"
CAFETERIA,NINA CAF BAR,OLASCOAGA,10,CIUDAD,SAN RAFAEL,OLASCOAGA 10 CIUDAD SAN RAFAEL,-35.23810120,-60.61356870,0260-4423678,E/T,CAMPI S.R.L.
PIZZERIA,DON EVARISTO,MDO.COOP.GLLEN.,S/N,CIUDAD,GUAYMALLEN,MDO.COOP.GLLEN. S/N CIUDAD GUAYMALLEN,-32.90282080,-68.80470040,,N/T,"JOFRE, EVARISTO"
RESTAURANTE,NATURATA,VICENTE LOPEZ,177,CIUDAD,CAPITAL,VICENTE LOPEZ 177 CIUDAD CAPITAL,-34.52812050,-58.47381600,4203087,573/02,"SAVA, ROXANA EMMA"
CONFITERIA,LOS AMIGOS,AV.J.V.ZAPATA,201,CIUDAD,CAPITAL,AV.J.V.ZAPATA 201 CIUDAD CAPITAL,-32.89038245,-68.85316584,4200382,457/96,"OGA,ADRIANA ELBA"
CAF-BAR,ALL SWEET,PASO DE LOS ANDES,655,CIUDAD,CAPITAL,PASO DE LOS ANDES 655 CIUDAD CAPITAL,-32.89213460,-68.85878750,4231779,230/01,"SCIOLA, ESTEBAN DANTE-FAUCI"
RESTAURANTE,PACIFICO,AV.SAN JUAN,1407,CIUDAD,CAPITAL,AV.SAN JUAN 1407 CIUDAD CAPITAL,-34.62240260,-58.38604350,155591751,338/09,"CORTEZ, ROSA ALEJANDRA"
RESTAURANTE,CANTINA DE MONTA¥A,RUTA PANAMERICA,KM.26,CACHEUTA,LUJAN,RUTA PANAMERICA KM.26 CACHEUTA LUJAN,-34.56333120,-59.12088050,4480261-156580638,1127/14,"PEREYRA, ISMAEL NICOLAS"
CAFETERIA,NUEVO ESTILO,AV.SAN MARTIN,455,CIUDAD,CAPITAL,AV.SAN MARTIN 455 CIUDAD CAPITAL,-32.89859190,-68.84111530,4204193,E/T,"TALAVERA, GUSTAVO ADRIAN"
RESTO-BAR,LA YAPA,TERMINAL DEL SOL ALA OESTE,,SAN JOSE,GUAYMALLEN,TERMINAL DEL SOL ALA OESTE SAN JOSE GUAYMALLEN,-32.89489780,-68.82907250,155182873,E/T,"MESIAS, ALBERTO"
RESTAURANTE,LOS NEGRITOS BODEGON DE MONTA¥A,LOS OLMOS,S/N,POTRERILLOS,LUJAN,LOS OLMOS S/N POTRERILLOS LUJAN,-34.56333120,-59.12088050,156663998,829/14,"ARIZU, MABEL"
RESTAURANTE,LA BODEGA DEL 900,ACCESO ESTE Y URQUIZA,S/N,CIUDAD,GUAYMALLEN,ACCESO ESTE Y URQUIZA S/N CIUDAD GUAYMALLEN,-33.19646380,-68.21796590,4262773/5,N/T,"FRUGONI, ENILDA TITTARELLI DE"
CAFETERIA,STARBUCKS COFFEE,AV.SAN MARTIN SUR,2875,CIUDAD,GODOY CRUZ,AV.SAN MARTIN SUR 2875 CIUDAD GODOY CRUZ,-32.95539550,-68.85940130,4390819,490/15,STARBUKS COFFEE ARGENTINA S.R.L.
SANDWICHERIA,PUNTA DEL LAGO,AV.DEL TRABAJO,S/N,PARQUE GRAL.SAN MARTIN,CAPITAL,AV.DEL TRABAJO S/N PARQUE GRAL.SAN MARTIN CAPITAL,-32.89000100,-68.86841933,4453598,426/96,"BA¥OS, EDUARDO OSCAR"
RESTAURANTE,MC.DONALD'S,AV.SAN MARTIN,1214,CIUDAD,GODOY CRUZ,AV.SAN MARTIN 1214 CIUDAD GODOY CRUZ,-32.91164620,-68.84515360,4242304,156/01,ARCOS MENDOCINOS S.A.
RESTAURANTE,LA CHIASE DE DIïTOMMASO,URQUIZA,8136,RUSSELL,MAIPU,URQUIZA 8136 RUSSELL MAIPU,-32.99097740,-68.75672200,5241829-155869903,294/11,"ORTIZ, MARISA INES"
CONFITERIA,Y.P.F. FULL,AMIGORENA,25,CIUDAD,CAPITAL,AMIGORENA 25 CIUDAD CAPITAL,-32.89217740,-68.83920260,4290633,371/96,"OP.de ESTAC.de SERV.(MARTINENGHI,A.GTE.)"
BAR,CORNELIUS,AV.ARISTIDES VILLANUEVA,191,CIUDAD,CAPITAL,AV.ARISTIDES VILLANUEVA 191 CIUDAD CAPITAL,-32.89252400,-68.85272070,4236333,E/T,D.K.S.A.
RESTAURANTE,DON VENANCIO,ROSALES,306,DORREGO,GUAYMALLEN,ROSALES 306 DORREGO GUAYMALLEN,-32.91402830,-68.83443000,4313020,N/T,"FERNANDEZ,FELIX GERARDO"
RESTO-BAR,ACONCAGUA EXPEDICIONES,PARQUE PROVINCIAL ACONCAGUA,S/N,PARQUE ACONCAGUA,LAS HERAS,PARQUE PROVINCIAL ACONCAGUA S/N PARQUE ACONCAGUA LAS HERAS,-32.65317900,-70.01086750,155153629,311/05,"TETILLA, FEDERICO EUGENIO"
HELADERIA,SAN NICOLAS,BELGRANO,665,CIUDAD,TUPUNGATO,BELGRANO 665 CIUDAD TUPUNGATO,-33.37280360,-69.14755830,,13/*06,"SALVALAGGIO, EDUARDO JAVIER"
CAFETERIA,LAS PARRAS,TERMINAL DEL SOL ALA ESTE,,SAN JOSE,GUAYMALLEN,TERMINAL DEL SOL ALA ESTE SAN JOSE GUAYMALLEN,-32.89489780,-68.82907250,155182873,055/09,"MESIAS, ALBERTO"
HELADERIA,LOMORO,AV. BALLOFET,1340,CIUDAD,SAN RAFAEL,AV. BALLOFET 1340 CIUDAD SAN RAFAEL,-34.62415240,-68.35306350,0260-4425558,E/T,"LUNA, VERONICA"
RESTAURANTE,VISER,AV.BULOGNE SUR MER,98,CIUDAD,SAN MARTIN,AV.BULOGNE SUR MER 98 CIUDAD SAN MARTIN,-34.68790540,-58.52112490,,025/10,VISER S.R.L.
RESTAURANTE,MASI TUPUNGATO,L. PIZARRO,S/N,LA ARBOLEDA,TUPUNGATO,L. PIZARRO S/N LA ARBOLEDA TUPUNGATO,-33.37487980,-69.11448630,156539573,E/T,MASI TUPUNGATO VIGNETI LA ARBOLEDA S.A.
RESTAURANTE,EL PARADOR,RUTA 7,S/N,PENITENTES,LAS HERAS,RUTA 7 S/N PENITENTES LAS HERAS,-32.84165260,-69.84083680,,E/T,"VELASQUEZ, RICARDO"
HELADERIA,GRIDO,ITALIA,5475,CHACRAS DE CORIA,LUJAN,ITALIA 5475 CHACRAS DE CORIA LUJAN,-32.98589480,-68.88108850,,E/T,"PRONYK, ENRIQUE MARTIN"
SANDWICHERIA,EL CONDOR,BALLOFET,981,CIUDAD,SAN RAFAEL,BALLOFET 981 CIUDAD SAN RAFAEL,-34.62173410,-68.34947330,260-4699643,E/T,"ULLOA, BETIANA ELIZABETH"
CAFETERIA,EL ESTABLO,AV.SAN MARTIN,2633,CIUDAD,CAPITAL,AV.SAN MARTIN 2633 CIUDAD CAPITAL,-32.87230850,-68.83432190,4375999,832/15,"GONZALEZ, MATEO"
CAF,LA BARCA,ESPEJO,120,CIUDAD,CAPITAL,ESPEJO 120 CIUDAD CAPITAL,-32.88934760,-68.84081395,4233367,183/01,LOVE S.A.
RESTAURANTE,AZIMUT,PARQUE PROVINCIAL ACONCAGUA,,PARQUE ACONCAGUA,LAS HERAS,PARQUE PROVINCIAL ACONCAGUA PARQUE ACONCAGUA LAS HERAS,-32.65317900,-70.01086750,155527070,066/15,ADVENTURE ARGENTINA S.A.
CAF-BAR,DE ZERO,AV.SAN MARTIN,1040,CIUDAD,CAPITAL,AV.SAN MARTIN 1040 CIUDAD CAPITAL,-32.91379370,-68.84582360,,E/T,"LUDUE¥A, SANDRA"
RESTAURANTE,PERLA NEGRA,9 DE JULIO,1357,CIUDAD,CAPITAL,9 DE JULIO 1357 CIUDAD CAPITAL,-32.88757104,-68.83980795,,E/T,LUPERLE S.A.
CAFETERIA,SUPER PANCHO,JOSE F. MORENO,971,CIUDAD,CAPITAL,JOSE F. MORENO 971 CIUDAD CAPITAL,-32.89293990,-68.83272090,,711/12,"GRAZIOTIN, CLAUDIO FABIAN"
CABARET,TU NOCHE,NU¥EZ,S/N,CIUDAD,SAN RAFAEL,NU¥EZ S/N CIUDAD SAN RAFAEL,37.97353460,-122.53108740,,136/91,"MOYA, NELIDA BARROSO"
CAFETERIA,ANTIGUO PORTAL,LIBERTAD,602,VILLA NUEVA,GUAYMALLEN,LIBERTAD 602 VILLA NUEVA GUAYMALLEN,-32.90085010,-68.78824600,4261862,313/08,"OLIVA, M.DEL CARMEN"
CAF,LA ROCA,SAENZ PE¥A,47,CIUDAD,LUJAN,SAENZ PEÑA 47 LUJAN,-33.03832382,-68.88055033,,245/05,"ACOSTA, JOSE PABLO"
RESTO-BAR,MANHATTAN,LAVALLE,73,CIUDAD,CAPITAL,LAVALLE 73 CIUDAD CAPITAL,-32.88862500,-68.83747900,4293823,376/08,"BEINART, MAURICIO"
BALNEARIO,IGUAZU,BANDERA DE LOS ANDES,2876,CIUDAD,GUAYMALLEN,BANDERA DE LOS ANDES 2876 CIUDAD GUAYMALLEN,-32.89709550,-68.80146670,,N/T,"ESPRONCEDA,RAMON"
CAF,CAF GODOY CRUZ,RIVADAVIA,555,CIUDAD,GODOY CRUZ,RIVADAVIA 555 CIUDAD GODOY CRUZ,-32.92452460,-68.84425710,4225273,179/05,"TEJERINA, CARLOS GU STAVO"
DULCERIA,NONA DULCE,RUTA NACIONAL 143,S/N,LAS PAREDES,SAN RAFAEL,RUTA NACIONAL 143 S/N LAS PAREDES SAN RAFAEL,-35.77800810,-67.28570000,0260-4427744,164/02,"ALLOLIO DE PEREZ, ESTELA"
CAFETERIA,BONAFIDE,AV.SAN MARTIN,378,CIUDAD,GODOY CRUZ,AV.SAN MARTIN 378 CIUDAD GODOY CRUZ,-32.92013690,-68.84739910,2604562672,E/T,BONAFIDE EXPRESS
CARRITO-BAR,DENNYïS BURGUER,GARIBALDI,45,CIUDAD,CAPITAL,GARIBALDI 45 CIUDAD CAPITAL,46.16160450,13.21148900,4246673,185/92,"RODRIGUEZ, EDUARDO DANIEL"
SANDWICHERIA,LA MURALLA,PEDRO B.PALACIOS,978,CIUDAD,CAPITAL,PEDRO B.PALACIOS 978 CIUDAD CAPITAL,-32.89342900,-68.83201470,,948/09,"MESIAS, ALBERTO"
PIZZERIA,TUTTI PIZZA,RUTA PANAMERICANA,2525,CIUDAD,GODOY CRUZ,RUTA PANAMERICANA 2525 CIUDAD GODOY CRUZ,-33.01100080,-68.92417170,4396935,284/97,"SCATTAREGGI,OSCAR RUBEN"
SANDWICHERIA,SUPER HOT,AV.SAN MARTIN,512,CIUDAD,GODOY CRUZ,AV.SAN MARTIN 512 CIUDAD GODOY CRUZ,-32.91869580,-68.84693790,4247471,367/97,"BRAJON,RAUL HECTOR"
PARRILLADA,LA RECOLETA,ACCESO ESTE LATERAL SUR,1009,VILLA NUEVA,GUAYMALLEN,ACCESO ESTE LATERAL SUR 1009 VILLA NUEVA GUAYMALLEN,-32.89800660,-68.82342290,,17/89,"SANTOS, MIGUEL ANGEL Y GOBBI, JUAN LISANDRO"
RESTO-BAR,LA AZUL,RUTA PROV.89,S/N,TUPUNGATO,TUPUNGATO,RUTA PROV.89 S/N TUPUNGATO TUPUNGATO,-33.37491690,-69.15310250,02622-423593,561/17,"FADEL HINOJOSA, EZEQUIEL ABDO"
RESTAURANTE,BODEGA 1920,CUBILLOS,3200,RAMA CAIDA,SAN RAFAEL,CUBILLOS 3200 RAMA CAIDA SAN RAFAEL,-34.66616680,-68.38869810,260-4649788,E/T,"ROJO, ELBIO RAUL"
CAF,DEL PORTAL,LIBERTAD,602,CIUDAD,GUAYMALLEN,LIBERTAD 602 CIUDAD GUAYMALLEN,-32.90282080,-68.80470040,,236/01,"MERCHET, DANIEL LUIS"
HELADERIA,LOURDES,MARTINEZ DE ROSAS,6064,CIUDAD,GUAYMALLEN,MARTINEZ DE ROSAS 6064 CIUDAD GUAYMALLEN,-32.90635150,-68.76907050,,474/86,"MICHELINI, ROLANDO HERMAN"
RESTAURANTE,LO DE PEDRO,9 DE JULIO Y SAN MARTIN,,25 DE MAYO,SAN RAFAEL,9 DE JULIO Y SAN MARTIN 25 DE MAYO SAN RAFAEL,37.97353460,-122.53108740,0260-4495006,E/T,"CONEJO, SELBA ADELA"
RESTAURANTE,RECOBA,ACCESO SUR OESTE,1873,CIUDAD,GODOY CRUZ,ACCESO SUR OESTE 1873 CIUDAD GODOY CRUZ,-32.93105470,-68.82694810,4399707,237/01,"BUSTOS, ESTHER TERESA"
HELADERIA,EL ARTE,AVELLANEDA,2535,VILLA NUEVA,GUAYMALLEN,AVELLANEDA 2535 VILLA NUEVA GUAYMALLEN,-32.88282060,-68.78376640,,463/96,"MIRAS,DANIEL Y FERNANDEZ"
RESTAURANTE,DON RAMàN,DIAGONAL CARLOS PELLEGRINI,50,CIUDAD,GRAL.ALVEAR,DIAGONAL CARLOS PELLEGRINI 50 CIUDAD GRAL.ALVEAR,-34.97875740,-67.68855480,02625-440043,E/T,"CRAUCHUK DIAZ, ANIBAL ANGEL"
RESTAURANTE,DON NICOLA,BELGRANO,498,COSTA DE ARAUJO,LAVALLE,BELGRANO 498 COSTA DE ARAUJO LAVALLE,-32.75821560,-68.40025230,,N/T,"VERA,FRANCISCO"
HELADERIA,CHENTTO,TEURLAY,387,VILLA NUEVA,GUAYMALLEN,TEURLAY 387 VILLA NUEVA GUAYMALLEN,-32.90553420,-68.80150000,4263276,483/93,"FLORES, LUIS ALBERTO"
RESTAURANTE,LA PARRA,AV.SAN MARTIN SUR,1873,BENEGAS,GODOY CRUZ,AV.SAN MARTIN SUR 1873 BENEGAS GODOY CRUZ,-32.94359330,-68.85125110,4399707,340/05,"ALEGRETTI, MOISES ABEL"
CAFETERIA,MALLKU EXPEDICIONES,PARQUE PROVINCIAL ACONCAGUA,S/N,PARQUE ACONCAGUA,LAS HERAS,PARQUE PROVINCIAL ACONCAGUA S/N PARQUE ACONCAGUA LAS HERAS,-32.65317900,-70.01086750,4204811,E/T,"HERRERA, VICTOR HUGO"
CAF,CHARLY,BALCARCE,40,CIUDAD,LUJAN,BALCARCE 40 CIUDAD LUJAN,-37.84640670,-58.25545840,4981469,302/97,"BOHE,CARLOS ANIBAL"
RESTAURANTE,LOS ILUSTRES,SAN MARTIN,1047,CIUDAD,TUNUYAN,SAN MARTIN 1047 CIUDAD TUNUYAN,-33.57910540,-69.01593910,,356/17,"ORTIZ, EDUARDO FABIAN"
PIZZERIA,QUESTAPIZZA,EMILIO CIVIT Y MAZA,,CIUDAD,MAIPU,EMILIO CIVIT Y MAZA CIUDAD MAIPU,-33.51058660,-70.75726070,4976910,899/15,GRUPO SAN S.R.L.
CAF,EDRIAN ESTEBAN POBLETE,FEDERICO MORENO,1518,CIUDAD,CAPITAL,FEDERICO MORENO 1518 CIUDAD CAPITAL,-32.88580790,-68.83270230,4204611,589/09,"POBLETE, ADRIAN ESTEBAN"
BAR,CHAJUCO BAR DE TAPAS,AV.ARISTIDES VILLANUEVA,387,CIUDAD,CAPITAL,AV.ARISTIDES VILLANUEVA 387 CIUDAD CAPITAL,-32.89192070,-68.85628860,,E/T,"SARLI SCHARFF, GUSTAVO FRANCISCO"
RESTAURANTE,IL PANINO,BV.PEREZ CUESTA,3280,VILLA NUEVA,GUAYMALLEN,BV.PEREZ CUESTA 3280 VILLA NUEVA GUAYMALLEN,-32.89997700,-68.79925000,4490906,363/14,LOMOS CORDOBESES S.R.L.
RESTAURANTE,LAVALLE,BELGRANO,186,VILLA TULUMAYA,LAVALLE,BELGRANO 186 VILLA TULUMAYA LAVALLE,-32.72101400,-68.59220050,,357/83,"GAJARDO DE VEGA, MARIA CRISTINA"
HELADERIA,GRIDO,OLASCOAGA,2395,CIUDAD,CAPITAL,OLASCOAGA 2395 CIUDAD CAPITAL,-32.87407650,-68.85002740,,E/T,"MITERMAYER, CRISTINA RAQUEL"
CAFETERIA,LA CORTE,AV.SAN MARTIN,272,CIUDAD,CAPITAL,AV.SAN MARTIN 272 CIUDAD CAPITAL,-32.90077390,-68.84204390,4244300,359/83,"FERNANDEZ, NESTOR"
BAR,CAF MOUSTACHE,AV.MITRE,653,CIUDAD,CAPITAL,AV.MITRE 653 CIUDAD CAPITAL,-32.89465390,-68.84539250,,353/09,"SALABERRI, LUCIA MABEL"
CAF-BAR,HARAS LA FUSTA,AV.SAN MARTIN,801,CIUDAD,CAPITAL,AV.SAN MARTIN 801 CIUDAD CAPITAL,-32.85761250,-68.83317100,4295054,329/88,"MERINO,CANDIDO ALBERTO"
BAR,EL GRINGO,RUTA 40,"KM38,5",UGARTECHE,LUJAN,"RUTA 40 KM38,5 UGARTECHE LUJAN",-33.22768470,-68.89264120,,402/86,"ROMANO,JORGE ALBERTO"
SANDWICHERIA,DON OMAR,GOBERNADOR ORTIZ,S/N,VISTALBA,LUJAN,GOBERNADOR ORTIZ S/N VISTALBA LUJAN,-33.02424250,-68.93722070,,718/85,"CHANTIRE, JORGE OMAR"
RESTAURANTE,ARMANDO,AV.LOS CONDORES,S/N,POTRERILLOS,LUJAN,AV.LOS CONDORES S/N POTRERILLOS LUJAN,-32.96196100,-69.19656260,,N/T,"VELEZ, LILIANA JUDITH"
CAFETERIA,ALGARROBA,LOS ANDES,S/N,25 DE MAYO,SAN RAFAEL,LOS ANDES S/N 25 DE MAYO SAN RAFAEL,37.97353460,-122.53108740,0260-154676397,E/T,"VENGELS, OMAR"
PIZZERIA,LA SABROSONA,LAVALLE,925,CIUDAD,GUAYMALLEN,LAVALLE 925 CIUDAD GUAYMALLEN,-32.92510140,-68.85695140,4450403,271/01,"FERNANDEZ, TERESA DE JESUS AMELIA"
HELADERIA,CHINI,AV.SAN MARTIN,1360,CIUDAD,CAPITAL,AV.SAN MARTIN 1360 CIUDAD CAPITAL,-32.88774240,-68.83879340,4230843,E/T,VALTELINA S.A.
RESTAURANTE,DE UN RINCON DE LA BOCA,AV.LAS HERAS,485,CIUDAD,CAPITAL,AV.LAS HERAS 485 CIUDAD CAPITAL,-32.88512870,-68.84445360,4251489,346/09,"TRUJILLO, MARIA TERESA"
CAFETERIA,BOOKAFE,AV.COLON,414,CIUDAD,CAPITAL,AV.COLON 414 CIUDAD CAPITAL,-32.89420080,-68.84602120,4256555,1203/14,"MOTTA, ELIAS NOE"
RESTAURANTE,NONTUE,UGARTE,314,LA PUNTILLA,LUJAN,UGARTE 314 LA PUNTILLA LUJAN,-34.56333120,-59.12088050,4391924,N/T,"BENINGAZA,EDUARDO(SUCECION)"
CARRITO-BAR,EL REY DEL LOMO,MDO.COOP.GLLEN.,S/N,CIUDAD,GUAYMALLEN,MDO.COOP.GLLEN. S/N CIUDAD GUAYMALLEN,-32.90282080,-68.80470040,,N/T,"ARANCIBIA, CARLOS EDUARDO"
CONF.BAILABLE,SKETCH,RUTA PANAMERICANA,KM.16,CHACRAS DE CORIA,LUJAN,RUTA PANAMERICANA KM.16 CHACRAS DE CORIA LUJAN,-33.03838740,-69.02270270,,N/T,"ARANBURU,RODOLFO"
CAF-BAR,DO¥A MARY,MDO.COOP.GLLEN.,S/N,CIUDAD,GUAYMALLEN,MDO.COOP.GLLEN. S/N CIUDAD GUAYMALLEN,-32.90282080,-68.80470040,,457/86,"FRIGOLI, EULOGIA"
CAFETERIA,CUARTO INTERMEDIO,PATRICIAS MENDOCINAS,1183,CIUDAD,CAPITAL,PATRICIAS MENDOCINAS 1183 CIUDAD CAPITAL,-32.88904160,-68.84281200,4297300,E/T,"MOLINA, RICARDO DOMINGO"
CARRITO-BAR,LA ROTONDA,RUTA 7,S/N,,LA PAZ,RUTA 7 S/N LA PAZ,-16.48968900,-68.11929360,,69/87,"FERNANDEZ, NORMA"
RESTAURANTE,CARO PEPE,AV.LAS HERAS,510,CIUDAD,CAPITAL,AV.LAS HERAS 510 CIUDAD CAPITAL,-32.88530760,-68.84500100,4254482,E/T,NAZERTINOS S.A.
CONFITERIA,FORUM,AV.SAN JUAN,1424,CIUDAD,CAPITAL,AV.SAN JUAN 1424 CIUDAD CAPITAL,-34.62252120,-58.38625540,4252250,E/T,"PONCE, OSCAR OSVALDO"
RESTAURANTE,EL TUMI DE ORO,AV.MITRE,1766,CIUDAD,CAPITAL,AV.MITRE 1766 CIUDAD CAPITAL,-32.88223050,-68.84281200,4340088,E/T,"HERNANDEZ VELAZQUEZ, JACQUELINE CARMINA"
PIZZERIA,BONY`S PIZZA,SAN MARTIN,459,CIUDAD,SAN RAFAEL,SAN MARTIN 459 CIUDAD SAN RAFAEL,37.97353460,-122.53108740,0260-4424640,553/09,"BONICELLI, SANDRA"
CAF-BAR,RIO,GRAL.PAZ,76,CIUDAD,CAPITAL,GRAL.PAZ 76 CIUDAD CAPITAL,-32.88516580,-68.83889760,4231845,018/97,"MANONI, FABIAN PRIMO"
BAR,LOMHA FAST FOOD,AV.ARISTIDES VILLANUEVA,372,CIUDAD,CAPITAL,AV.ARISTIDES VILLANUEVA 372 CIUDAD CAPITAL,-32.89260290,-68.85596730,4203991,E/T,"BILURON CABRERA, DEBORA YANET"
CONFITERIA,HASAMBEE,SAN MARTIN,5622,CARRODILLA,LUJAN,SAN MARTIN 5622 CARRODILLA LUJAN,-32.98589970,-68.86167940,,N/T,"MAXWEL, EDUARDO"
RESTAURANTE,EL GALLEGO,SAN MARTIN,1575,CIUDAD,TUNUYAN,SAN MARTIN 1575 CIUDAD TUNUYAN,-33.57338660,-69.01627370,,177/18,"MARIN, FEDERICO MANUEL"
CAF-BAR,LA BARRA,RUTA 173,KM.39,VALLE GRANDE,SAN RAFAEL,RUTA 173 KM.39 VALLE GRANDE SAN RAFAEL,-34.83510630,-68.51645090,0260-154531733,170/03,"COUSILLAS, ALEJANDRO BLANQUER"
RESTAURANTE,IL PANINO,LAS CA¥AS,1833,LA BARRACA MALL,GUAYMALLEN,LAS CA¥AS 1833 LA BARRACA MALL GUAYMALLEN,-32.91441240,-68.82169940,4598077,E/T,ACCESO SUR S.R.L.
CAF,CAF PELLEGRINI,AV.SAN JUAN,907,CIUDAD,CAPITAL,AV.SAN JUAN 907 CIUDAD CAPITAL,-34.62187970,-58.37870970,261-4703259,E/T,"CASABONA, LUIS FERNANDO"
RESTAURANTE,POSADA LA CELIA,CIRCV.CELIA BUSTO DE QUIROGA,374,EUGENIO BUSTOS,SAN CARLOS,CIRCV.CELIA BUSTO DE QUIROGA 374 EUGENIO BUSTOS SAN CARLOS,-33.77901060,-69.06271400,02622-451010,E/T,FINCA LA CELIA S.A.
PIZZERIA,VICENTE SIN LOPEZ NI PLANES,AV.JUAN B.JUSTO,416,CIUDAD,CAPITAL,AV.JUAN B.JUSTO 416 CIUDAD CAPITAL,-32.88393440,-68.85482150,4299906,065/18,1765 CABA S.A.
RESTAURANTE,LA BRIOCHE,AV.JUAN B.JUSTO,190,CIUDAD,CAPITAL,AV.JUAN B.JUSTO 190 CIUDAD CAPITAL,-32.88407120,-68.85139740,4259944,129/18,"RODRIGUEZ, LEONOR"
BAR,DEL ESTE,ALEM,447,CIUDAD,SAN MARTIN,ALEM 447 CIUDAD SAN MARTIN,-33.08570006,-68.46672955,,N/T,"FERRARI, PAULO"
BAR,LOS PUQUIOS,RUTA INTERNACIONAL 7,KM.1217,LOS PUQUIOS,LAS HERAS,RUTA INTERNACIONAL 7 KM.1217 LOS PUQUIOS LAS HERAS,-32.82461690,-69.89246580,4288465,E/T,"REDONDO, PABLO LUIS"
PIZZERIA,ITALIA,SAN ISIDRO,861,CIUDAD,RIVADAVIA,SAN ISIDRO 861 CIUDAD RIVADAVIA,-31.52948190,-68.59405580,02623-443341,N/T,"JAUME, AGUSTIN JOSE"
RESTAURANTE,PALADARES,BV.PEREZ CUESTA,3280,MZA.PLAZA SHOPPING,GUAYMALLEN,BV.PEREZ CUESTA 3280 MZA.PLAZA SHOPPING GUAYMALLEN,-32.90195070,-68.79746810,4490908,335/09,PALADAR MENDOCINO S.A.
CAF,PIERROT,PEDRO MOLINA,173,CIUDAD,CAPITAL,PEDRO MOLINA 173 CIUDAD CAPITAL,-32.89613159,-68.84330866,4077761,E/T,"TALQUENCA, ELVIRA"
SANDWICHERIA,MR.DOG,RUTA PANAMERICANA,2650,PALMARES,GODOY CRUZ,RUTA PANAMERICANA 2650 PALMARES GODOY CRUZ,-32.95570440,-68.85890340,4399339,340/97,"FORNIES,ALFREDO G."
SANDWICHERIA,SERATI,DORREGO,651,CIUDAD,GUAYMALLEN,DORREGO 651 CIUDAD GUAYMALLEN,-32.92052400,-68.83339200,4201112,268/01,"FLORES, SERGIO JUAN"
RESTAURANTE,LA POSTA,AV.ROCA E.,174,CIUDAD,MALARGUE,AV.ROCA E. 174 CIUDAD MALARGUE,-35.48446200,-69.57974950,0260-4471306,1131/14,"DOMINGUEZ, RUBEN DARIO"
RESTAURANTE,DUO RESTO,BALLOFET,585,CIUDAD,SAN RAFAEL,BALLOFET 585 CIUDAD SAN RAFAEL,-34.61847700,-68.34540920,260-4624569,E/T,"PASCUTTINI, ROMANO AGUSTIN"
RESTO-BAR,DECIMO RESTO WINE BAR,GARIBALDI,7,CIUDAD,CAPITAL,GARIBALDI 7 CIUDAD CAPITAL,-32.89084561,-68.83895233,4340135,E/T,MADAGASCAR S.A.
RESTAURANTE,BLANCO,SOLER,1684,SAN JOSE,GUAYMALLEN,SOLER 1684 SAN JOSE GUAYMALLEN,-32.89000520,-68.81360000,,613/85,"BLANCO,JULIO"
BAR,DON QUIJOTE,AV.ARISTIDES VILLANUEVA,427,CIUDAD,CAPITAL,AV.ARISTIDES VILLANUEVA 427 CIUDAD CAPITAL,-32.89174970,-68.85704260,4251292,560/17,"GOMEZ, CRISTIAN NORBERTO"
RESTAURANTE,DON ALDO,AV.ARISTIDES VILLANUEVA,234,CIUDAD,CAPITAL,AV.ARISTIDES VILLANUEVA 234 CIUDAD CAPITAL,-32.89276010,-68.85380060,4200112,112/18,ALDO S.R.L.
BAR,LA TABERNA DE MOE,CATAMARCA,22,CIUDAD,CAPITAL,CATAMARCA 22 CIUDAD CAPITAL,-28.46958100,-65.77954410,4253217,319/10,"RANALDI, ARIEL HECTOR"
SANDWICHERIA,MR.DOG,AV.SAN MARTIN,1948,CIUDAD,GODOY CRUZ,AV.SAN MARTIN 1948 CIUDAD GODOY CRUZ,-32.90498840,-68.84342820,4323003,214/01,"FORNIES,ALFREDO G."
PIZZERIA,SEBASTIAN,ALEM,431,CIUDAD,CAPITAL,ALEM 431 CIUDAD CAPITAL,-32.89281681,-68.83399975,4237700,N/T,"FERRER, SEBASTIAN Y JOSE"
RESTAURANTE,CLUB SOCIAL VILLA NUEVA,LIBERTAD,824,VILLA NUEVA,GUAYMALLEN,LIBERTAD 824 VILLA NUEVA GUAYMALLEN,-32.89907630,-68.78747020,4262755,32/96,C.S.VILLA NUEVA ALDO SCUDERI(CONSECIO.)
CAFETERIA,BONAFIDE,AV. COLON,531,CIUDAD,CAPITAL,AV. COLON 531 CIUDAD CAPITAL,-32.89346940,-68.84730200,,E/T,DOBARBE S.A.
RESTAURANTE,NIPOTI,BV.PEREZ CUESTA,3280,MZA.PLAZA SHOPPING,GUAYMALLEN,BV.PEREZ CUESTA 3280 MZA.PLAZA SHOPPING GUAYMALLEN,-32.90195070,-68.79746810,4291590,E/T,BRODA S.A.
PARRILLADA,PADDLE LOS OLIVOS,EL TOLEDANO,1500,LAS PAREDES,SAN RAFAEL,EL TOLEDANO 1500 LAS PAREDES SAN RAFAEL,-34.61048690,-68.38653860,0260-4422769,83/93,"MOZAS,OSVALDO"
SANDWICHERIA,DEL PRADO SANDWICH,COSTANERA DEL LAGO,S/N,PARQUE GRAL.SAN MARTIN,CAPITAL,COSTANERA DEL LAGO S/N PARQUE GRAL.SAN MARTIN CAPITAL,6.52437930,3.37920570,,E/T,"BA¥OS, DAMIAN OSCAR"
RESTAURANTE,SAN CAYETANO,RUTA 7,KM.866,DESAGUADERO,LA PAZ,RUTA 7 KM.866 DESAGUADERO LA PAZ,-33.40303670,-67.15486200,,E/T,"FERNANDEZ, TERESA NOELIA"
CAFETERIA,ZACKïS,BV.PEREZ CUESTA,3280,MZA.PLAZA SHOPPING,GUAYMALLEN,BV.PEREZ CUESTA 3280 MZA.PLAZA SHOPPING GUAYMALLEN,-32.90195070,-68.79746810,4260540,E/T,RIDDIS S.R.L.
BALNEARIO,LA PERLA DE CUYO,BANDERA DE LOS ANDES,5380,VILLA NUEVA,GUAYMALLEN,BANDERA DE LOS ANDES 5380 VILLA NUEVA GUAYMALLEN,-32.90817870,-68.77831090,,71/85,"BURAD Y MECA, JOSE"
RESTAURANTE,LA CASONA DE MURVILLE,HIPOLITO YRIGOYEN,5814,LAS PAREDES,SAN RAFAEL,HIPOLITO YRIGOYEN 5814 LAS PAREDES SAN RAFAEL,-34.59319100,-68.39955550,0260-4349778,E/T,"ROSALES CUELLO, ALNERTO OSVALDO"
CAFETERIA,FREDDO,RUTA PANAMERICANA,2550,PALMARES,GODOY CRUZ,RUTA PANAMERICANA 2550 PALMARES GODOY CRUZ,-33.01084930,-68.92397430,4139147,1027/13,BRINA S.A.
RESTAURANTE,LA CANTINA DEL CLUB GIMNASIA Y ESGRIMA,GUTIERREZ,261,CIUDAD,CAPITAL,GUTIERREZ 261 CIUDAD CAPITAL,-32.88766678,-68.84208005,4250315,E/T,"GONZALEZ PILITI, JUAN IGNACIO"
RESTAURANTE,FRENCCESCO,CHAMPAGNAT,31,CIUDAD,SAN RAFAEL,CHAMPAGNAT 31 CIUDAD SAN RAFAEL,-34.61289220,-68.33906220,0260-4437014,E/T,FSG S.R.L.
RESTAURANTE,SU VIANDA,CORDOBA,168/170,CIUDAD,CAPITAL,CORDOBA 168/170 CIUDAD CAPITAL,-31.42008330,-64.18877610,4236636,594/11,"SUAREZ, JAVIER"
CAFETERIA,HAVANNA,BV.PEREZ CUESTA,3280,MZA.PLAZA SHOPPING,GUAYMALLEN,BV.PEREZ CUESTA 3280 MZA.PLAZA SHOPPING GUAYMALLEN,-32.90195070,-68.79746810,4490137,935/13,FRANQUICIAS EL OESTE S.A.
RESTAURANTE,LOMAS BLANCAS,RUTA 7,S/N,PENITENTES,LAS HERAS,RUTA 7 S/N PENITENTES LAS HERAS,-32.84165260,-69.84083680,4241565,275/90,HORCONES S.A.
CAFETERIA,BONAFIDE,PEATONAL SARMIENTO,102,CIUDAD,CAPITAL,PEATONAL SARMIENTO 102 CIUDAD CAPITAL,-32.89042780,-68.84073740,4237915,315/07,EL ALDIJO S.A.
CONFITERIA,TERRANO,CIRCUITO PAPAGALLOS,S/N,EL CHALLAO,LAS HERAS,CIRCUITO PAPAGALLOS S/N EL CHALLAO LAS HERAS,-32.89536000,-68.91337400,4441152,385/97,DARIO Y FLAVIO MATTA
RESTAURANTE,AZAFRAN,AV.SARMIENTO,765,CIUDAD,CAPITAL,AV.SARMIENTO 765 CIUDAD CAPITAL,-32.88872700,-68.84890740,4294200,459/03,ALAMDEX S.A.
HELADERIA,FERRUCCIO SOPPELSA,PABLO PESCARA,202,CIUDAD,MAIPU,PABLO PESCARA 202 CIUDAD MAIPU,-32.98393030,-68.78752740,4811954,27*06,"RUPPERT, GERARDO HORACIO"
CAFETERIA,DEL MERCADO,AV.LAS HERAS,229,MERCADO CENTRAL,CAPITAL,AV.LAS HERAS 229 MERCADO CENTRAL CAPITAL,-32.88551268,-68.84122339,,894/12,"SPINELLI, SILVIA"
CARRITO-BAR,LA BOMBA,RUTA 16,KM.17,EL CARRIZAL,LUJAN,RUTA 16 KM.17 EL CARRIZAL LUJAN,-33.32171140,-68.75980310,,N/T,"HEREDIA, AURELIA"
BAR,ANTARES BAR PUB,AV.ARISTIDES VILLANUEVA,153,CIUDAD,CAPITAL,AV.ARISTIDES VILLANUEVA 153 CIUDAD CAPITAL,-32.89249290,-68.85212690,4238327,E/T,LUPULAR CUYANO S.A.
CAFETERIA,CAF LATTE,AV.COLON,353,CIUDAD,CAPITAL,AV.COLON 353 CIUDAD CAPITAL,-32.89393590,-68.84501110,4258661,952/09,"BOULIN, JUAN PATRICIO"
BALNEARIO,LA CUYANITA,CARRIL VIEJO A S.JUAN,KM.16,,LAS HERAS,CARRIL VIEJO A S.JUAN KM.16 LAS HERAS,-33.02814190,-68.62807680,,N/T,"NACIF,AVELINO"
CAFETERIA,HAVANNA,PEATONAL SARMIENTO,68,CIUDAD,CAPITAL,PEATONAL SARMIENTO 68 CIUDAD CAPITAL,-32.89075070,-68.84021560,4381200,331/07,FRANQUICIAS EL OESTE S.A.
PIZZERIA,QUESTAPIZZA,MOLDES,2013,DORREGO,GUAYMALLEN,MOLDES 2013 DORREGO GUAYMALLEN,-32.91434360,-68.82394250,4268430,E/T,GRUPO SAN S.R.L.
PIZZERIA,ILO,BELGRANO,703,CIUDAD,TUPUNGATO,BELGRANO 703 CIUDAD TUPUNGATO,-33.37280360,-69.14755830,02622-488323,213/90,"DAL MORO, SONIA ESTELA"
BALNEARIO,EL ALGARROBAL,GRAL.PAZ,S/N,ALGARROBAL,LAS HERAS,GRAL.PAZ S/N ALGARROBAL LAS HERAS,-32.84797170,-68.78781740,,N/T,LOPRESTI HNOS.
RESTAURANTE,RESTAURANTE 1884-FRANCIS MALMAN,BELGRANO,1188,CIUDAD,GODOY CRUZ,BELGRANO 1188 CIUDAD GODOY CRUZ,-32.91238000,-68.84308410,4242698,522/03,KLIMT S.R.L.
BAR,EL KANO,AV.LAS HERAS,576,CIUDAD,CAPITAL,AV.LAS HERAS 576 CIUDAD CAPITAL,-32.88513940,-68.84559910,261-3363981,E/T,CHIDAINE S.A.
RESTAURANTE,CHALET DEL YETO,RAMA 5,S/N,3 DE MAYO,LAVALLE,RAMA 5 S/N 3 DE MAYO LAVALLE,-32.67863080,-68.64007930,,E/T,"MATAR, MARIA ANGELICA"
RESTAURANTE,CIELITO,HIPOLITO YRIGOYEN,197,CIUDAD,CAPITAL,HIPOLITO YRIGOYEN 197 CIUDAD CAPITAL,-34.61080390,-58.39907230,4244383,50/09,"PAGES, VALENTINA"
RESTAURANTE,SINFONIA DE SABORES,MUNUEL A. SAENZQ,S/N,RUSSELL,MAIPU,MUNUEL A. SAENZQ S/N RUSSELL MAIPU,-33.51058660,-70.75726070,4976707,E/T,"MARTOS, HUGO FRANCISCO"
RESTAURANTE,LA BARRICA,RUTA 40,KM.231,PERDRIEL,LUJAN,RUTA 40 KM.231 PERDRIEL LUJAN,-36.96722200,-69.79377750,4880226,179/11,RUMAOS S.A.
HELADERIA,GRIDO,AV.SAN MARTIN,303,CIUDAD,GODOY CRUZ,AV.SAN MARTIN 303 CIUDAD GODOY CRUZ,-32.92096620,-68.84733220,,E/T,"VICENTI, MARTIN LAUTARO"
HELADERIA,BARRACO,J.V.GONZALEZ,1302,CIUDAD,GODOY CRUZ,J.V.GONZALEZ 1302 CIUDAD GODOY CRUZ,-32.92862680,-68.85839630,,327/89,"BARRACO,ALBERTO SANTIAGO"
CAF,QUANTUM,RIVADAVIA,216,CIUDAD,CAPITAL,RIVADAVIA 216 CIUDAD CAPITAL,-32.89129447,-68.84249625,4200121,575/18,"GERACI, EMILIANO MATIAS"
CAF-BAR,COMPLEJO LOS CAKTUS,RUTA PROVINCIAL 82,KM.38,CACHEUTA,LUJAN,RUTA PROVINCIAL 82 KM.38 CACHEUTA LUJAN,-33.01461880,-69.11852430,02624-490159,E/T,"LOMBARDO, EMIR ERNESTO"
PUB,ALQUIMIA,CERRO ACONCAGUA,3177,VISTALBA,LUJAN,CERRO ACONCAGUA 3177 VISTALBA LUJAN,-33.01057280,-68.92202960,4960369,119/03,"CHAMORRO, LUIS ALBERTO"
CAF,OH MADRID,REMEDIOS DE ESCALADA DE SAN MARTIN,1803,CIUDAD,CAPITAL,REMEDIOS DE ESCALADA DE SAN MARTIN 1803 CIUDAD CAPITAL,-34.57112230,-58.61503370,,054/13,"MAYORGA, LUIS GERARDO"
CONFITERIA,SAUCELANDIA,TIRASSO,S/N,EL SAUCE,GUAYMALLEN,TIRASSO S/N EL SAUCE GUAYMALLEN,-32.89075860,-68.75720700,,N/T,"ARANITI, EMILIO"
CAFETERIA,OPEN PLAZA,AV.SAN MARTIN,230,CIUDAD,LUJAN,AV.SAN MARTIN 230 CIUDAD LUJAN,-34.56333120,-59.12088050,,E/T,"ABRAHAM, MARIA FABIANA"
RESTAURANTE,PORTAL DEL ATUEL,RUTA 173,KM.35,RAMA CAIDA,SAN RAFAEL,RUTA 173 KM.35 RAMA CAIDA SAN RAFAEL,-34.83510630,-68.51645090,0260-154581603,100/14,"RENTERIA, DIEGO"
HELADERIA,MAGIC TOP,AV.MITRE,202,CIUDAD,SAN RAFAEL,AV.MITRE 202 CIUDAD SAN RAFAEL,-34.61717030,-68.32755780,0260-4425281,606/03,"CA¥ADAS TORRES, DOMINGO"
HELADERIA,ANAHI,RUTA 173,S/N,EL NIHUIL,SAN RAFAEL,RUTA 173 S/N EL NIHUIL SAN RAFAEL,-34.83510630,-68.51645090,,229/93,"RENTERIA, JUAN CARLOS"
MINIMARKET,OPESSA SARMIENTO,LIBERTADOR,898,CIUDAD,SAN RAFAEL,LIBERTADOR 898 CIUDAD SAN RAFAEL,-34.61289220,-68.33906220,0260-4428283,235/03,OPESSA
CONFITERIA,CHESA VEGLIA,VIAMONTE Y LARREA,S/N,CHACRAS DE CORIA,LUJAN,VIAMONTE Y LARREA S/N CHACRAS DE CORIA LUJAN,-32.98855850,-68.88488730,4962807,384/97,"MESINA, FABIOLA SILVINA"
CAFETERIA,OSCAR MANGANELLI,AV.SAN MARTIN,676,CIUDAD,GODOY CRUZ,AV.SAN MARTIN 676 CIUDAD GODOY CRUZ,-32.91754700,-68.84663700,4240306,586/03,"MANGANELLI, LUCIANO EDUARDO OSCAR"
RESTO-BAR,ZAPP,AV.ARISTIDES VILLANUEVA,341,CIUDAD,CAPITAL,AV.ARISTIDES VILLANUEVA 341 CIUDAD CAPITAL,-32.89198250,-68.85555010,,555/17,EMPRENDIMIENTOS SAN ISIDRO S.A.
CAF-BAR,PIGALLE,BALCARCE,30,CIUDAD,SAN MARTIN,BALCARCE 30 CIUDAD SAN MARTIN,-34.55584200,-58.56453360,,105/87,"NAVIO, EVARISTO"
RESTAURANTE,ABAUCAN,GODOY CRUZ,1131,SAN JOSE,GUAYMALLEN,GODOY CRUZ 1131 SAN JOSE GUAYMALLEN,-32.88945410,-68.81725500,,N/T,"LARA, ENRIQUE"
SANDWICHERIA,ACONCAGUA BAR,PUENTE DEL INCA,,PUENTE DEL INCA,LAS HERAS,PUENTE DEL INCA PUENTE DEL INCA LAS HERAS,-32.82220430,-69.92371390,02624-420382,E/T,"GONZALES,MARO E Y SUAREZ PATRICIA"
RESTAURANTE,FINCA BLOUSSON WINS & BISTRO,RUTA 94,KM.14,LOS CHACAYES,TUNUYAN,RUTA 94 KM.14 LOS CHACAYES TUNUYAN,-33.58131850,-69.01533610,156553382,E/T,FINCA BLOUSSON S.A.
CAF-BAR,CINEMA EXPRESS,RUTA PANAMERICANA,2650,PALMARES,GODOY CRUZ,RUTA PANAMERICANA 2650 PALMARES GODOY CRUZ,-32.95570440,-68.85890340,4139063,233/01,NUEVO SIGLO S.R.L.
RESTAURANTE,ANNA BISTRO,AV.JUAN B.JUSTO,161,CIUDAD,CAPITAL,AV.JUAN B.JUSTO 161 CIUDAD CAPITAL,-32.88380140,-68.85102730,4251818,502/09,"CONSTANT,HEMI"
RESTAURANTE,TEA & COMPANY,TUCUMAN,185,CIUDAD,CAPITAL,TUCUMAN 185 CIUDAD CAPITAL,-26.80828480,-65.21759030,4247815,064/18,MARIA BIANCA S.A.
BAR,LORENZO,AV.HIPOLITO IRIGOYEN,1850,CIUDAD,SAN RAFAEL,AV.HIPOLITO IRIGOYEN 1850 CIUDAD SAN RAFAEL,-34.60850670,-68.35170560,,176/03,"BUTTINI, MARÖA JOS"
CAFETERIA,LA PREVIA,CATAMARCA,223,CIUDAD,CAPITAL,CATAMARCA 223 CIUDAD CAPITAL,-28.46958100,-65.77954410,,174/18,"CEKALOVICH, DARIO SILVIO"
CAFETERIA,BIANCO & NERO,MITRE,1495,CHACRAS DE CORIA,LUJAN,MITRE 1495 CHACRAS DE CORIA LUJAN,-32.98653460,-68.88528530,,E/T,BIANCO Y NERO S.A.
RESTAURANTE,LA FLOR DE LA CANELA,AV.JUAN B.JUSTO,426,CIUDAD,CAPITAL,AV.JUAN B.JUSTO 426 CIUDAD CAPITAL,-32.88398000,-68.85487480,4201279,387/08,"RIOS CONTRERAS, ARCADIO"
RESTAURANTE,PÖRCAS PARQUE DE NIEVE,RUTA 7 KM.1210,,PENITENTES,LAS HERAS,RUTA 7 KM.1210 PENITENTES LAS HERAS,-32.84165260,-69.84083680,261-5166033,E/T,"TRENTACOSTE, CARLOS ROBERTO"
RESTAURANTE,BETOS,AV.SAN MARTIN,1384,CIUDAD,GODOY CRUZ,AV.SAN MARTIN 1384 CIUDAD GODOY CRUZ,-32.91041410,-68.84481470,,E/T,"CONTRERAS, VANESA VERONICA"
PARRILLADA,PARRILLA DE MERCADO,AV.LAS HERAS,279,MERCADO CENTRAL,CAPITAL,AV.LAS HERAS 279 MERCADO CENTRAL CAPITAL,-32.88505664,-68.84163545,4232624,400/08,"BUSTOS, MARTIN ALEJANDRO"
RESTAURANTE,LA NAVE DE LOS LOCOS,AV.SAN JUAN,1217,CIUDAD,CAPITAL,AV.SAN JUAN 1217 CIUDAD CAPITAL,-34.62212230,-58.38329010,4649024,346/11,"BAJDA, BARBARA"
RESTAURANTE,PILMAYKEN,LOS PLATANOS,S/N,PARQUE GRAL.SAN MARTIN,CAPITAL,LOS PLATANOS S/N PARQUE GRAL.SAN MARTIN CAPITAL,-32.88878847,-68.86670319,,15/*08,"BARROS, ROSA ARGENTINA"
RESTAURANTE,BUTE,RUTA PANAMERICANA,2650,PALMARES,GODOY CRUZ,RUTA PANAMERICANA 2650 PALMARES GODOY CRUZ,-32.95570440,-68.85890340,,349/17,CABUCA S.A.
CONFITERIA,SENECA,9 DE JULIO,197,CIUDAD,SAN MARTIN,9 DE JULIO 197 CIUDAD SAN MARTIN,-34.60733190,-58.38162520,,N/T,"ARAUJO SALVINI, ROBERTO OSVALDO"
MINIMARKET,PARADOR RHASA,BALLOFET,358,CIUDAD,SAN RAFAEL,BALLOFET 358 CIUDAD SAN RAFAEL,-34.61607320,-68.34369930,,178/03,"CµCERES, MARÖA LAURA"
PANCHERIA,PERRO MOTION,SARMIENTO,151,CIUDAD,MAIPU,SARMIENTO 151 CIUDAD MAIPU,-36.86322630,-57.88261260,,164/17,"MARCON, GABRIEL"
RESTAURANTE,MONTECATINI,GRAL.PAZ,370,CIUDAD,CAPITAL,GRAL.PAZ 370 CIUDAD CAPITAL,-32.88451780,-68.84275130,4252111,063/05,"DEL PAPA, NICOLA"
PIZZERIA,LA MENDOCINA,GRAL.PAZ,229,CIUDAD,CAPITAL,GRAL.PAZ 229 CIUDAD CAPITAL,-32.88454560,-68.84094860,4254973,N/T,"DIAZ, YOLANDA Y OTROS"
NO ESTA LEGAJO,CAVAS DE SAN RAFAEL,RUTA PANAMERICANA,S/N,LA PUNTILLA,LUJAN,RUTA PANAMERICANA S/N LA PUNTILLA LUJAN,-34.56333120,-59.12088050,,,"SILVA, GUSTAVO"
RESTAURANTE,LA BROCHETTE,AV.BULOGNE SUR MER,78,CIUDAD,SAN MARTIN,AV.BULOGNE SUR MER 78 CIUDAD SAN MARTIN,50.72523100,1.61333400,,397/08,"MORENO, RUBEN"
RESTAURANTE,LA BISTECA,LATERAL SUR ACCESO ESTE,3840,CIUDAD,SAN MARTIN,LATERAL SUR ACCESO ESTE 3840 CIUDAD SAN MARTIN,-33.06541490,-68.47737980,,013/08,LA BISTECA S.A
PIZZERIA,LA ROCA,AV.HIPOLITO IRIGOYEN,2150,CIUDAD,SAN RAFAEL,AV.HIPOLITO IRIGOYEN 2150 CIUDAD SAN RAFAEL,-34.60730180,-68.35586670,,191/03,"CALLEGARIS, ARTURO PEDRO"
HELADERIA,MARULA,AV. SAN MARTIN,453,CIUDAD,MALARGUE,AV. SAN MARTIN 453 CIUDAD MALARGUE,-35.47051430,-69.58516160,,128/03,"CASTRO, CLAUDIA CATALINA"
SANDWICHERIA,MR.DOG,AV.SAN MARTIN,1698,CIUDAD,CAPITAL,AV.SAN MARTIN 1698 CIUDAD CAPITAL,-32.90723960,-68.84397640,,082/14,"FORNIES,ALFREDO G."
PIZZERIA,EL PALACIO DE LA PIZZA,COSTA CANAL,S/N,MONTECASEROS,SAN MARTIN,COSTA CANAL S/N MONTECASEROS SAN MARTIN,-33.07731941,-68.48840012,,413/86,"ESPINOSA, MIGUEL"
CONFITERIA,LAS PALMAS,ALEM,222,CIUDAD,CAPITAL,ALEM 222 CIUDAD CAPITAL,-32.89270568,-68.83693996,4202108,355/09,"VASQUEZ, MONICA MERCEDES"
CAF,DE DIEZ,AV.J.V.ZAPATA,80,CIUDAD,CAPITAL,AV.J.V.ZAPATA 80 CIUDAD CAPITAL,-32.89481530,-68.83955206,4256680,068/05,"GUTIERREZ, MARIA CRISTINA"
RESTAURANTE,GRAN MENU.COM,GARIBALDI,63,CIUDAD,CAPITAL,GARIBALDI 63 CIUDAD CAPITAL,-32.89107421,-68.83788675,4237882,396/15,"CORTEZ, ROSA ALEJANDRA"
RESTAURANTE,HOT POLLO,AV.HIPOLITO IRIGOYEN,823,CIUDAD,SAN RAFAEL,AV.HIPOLITO IRIGOYEN 823 CIUDAD SAN RAFAEL,-34.61301980,-68.34015090,0260-4425433,518/08,"GUILLEN, JOSE LUIS"
RESTAURANTE,ALGODàN WINE ESTATES,RUTA NACIONAL 144,KM.674,CUADRO BENEGAS,SAN RAFAEL,RUTA NACIONAL 144 KM.674 CUADRO BENEGAS SAN RAFAEL,-34.90778140,-68.90040350,0260-4429020,E/T,ALGODàN WINE ESTATES S.R.L.
SANDWICHERIA,MR.DOG,AV.SAN MARTIN,747,CIUDAD,LUJAN,AV.SAN MARTIN 747 CIUDAD LUJAN,-33.03399958,-68.87792810,261-2426258,1123/14,"MORICCI, ROBERTO JUAN JOSE"
CAF,LOS ROBLES,RUTA PANAMERICANA,S/N,LAS COMPUERTAS,LUJAN,RUTA PANAMERICANA S/N LAS COMPUERTAS LUJAN,-33.03118830,-68.97009190,,448/97,"GONZALEZ,GRACIELA M."
PARRILLADA,AL CAR,STO.DE LAS ROSAS,S/N,CIUDAD,SAN RAFAEL,STO.DE LAS ROSAS S/N CIUDAD SAN RAFAEL,37.97353460,-122.53108740,0260-4425010,49/93,"MONTOYA, ALDO"
RESTAURANTE,TRECECAVAS,PUEYRREDON,2665,CHACRAS DE CORIA,LUJAN,PUEYRREDON 2665 CHACRAS DE CORIA LUJAN,-32.99250920,-68.89352350,4963683,325/05,"ELIAS, SILVIA GRACIELA"
CAFETERIA,LEON,AV.JUAN B.JUSTO,469,CIUDAD,CAPITAL,AV.JUAN B.JUSTO 469 CIUDAD CAPITAL,-32.88350630,-68.85552680,261-59180007,556/18,"GONZALEZ, CLAUDIO DAVID"
CAFETERIA,VIILAGE ARENA MAIPU,EMILIO CIVIT Y MAZA,,CIUDAD,MAIPU,EMILIO CIVIT Y MAZA CIUDAD MAIPU,-33.51058660,-70.75726070,156565397,1245/14,VILLAGE CINEMAS S.A.
PARRILLADA,CABA¥A EL AMIGO,RUTA 143,S/N,RAMA CAIDA,SAN RAFAEL,RUTA 143 S/N RAMA CAIDA SAN RAFAEL,-35.77800810,-67.28570000,0260-4441017,E/T,"CASTRO, LILIANA SUSANA"
RESTAURANTE,EL CACIQUE,CLUB DE PESCADORES,,EL NIHUIL,SAN RAFAEL,CLUB DE PESCADORES EL NIHUIL SAN RAFAEL,-35.03325540,-68.69913450,0260-4494022,40/04,"GIMENEZ, MIRTA TERESITA"
CAF,MIRADOR DE CAF & COPAS,COLON,45,CIUDAD,GODOY CRUZ,COLON 45 CIUDAD GODOY CRUZ,-32.92517770,-68.84514880,4228017,E/T,FEDEICOMISO EMINI
SANDWICHERIA,LA MURALLA,PEDRO B.PALACIOS,978,CIUDAD,CAPITAL,PEDRO B.PALACIOS 978 CIUDAD CAPITAL,-32.89342900,-68.83201470,,E/T,"FINOCHIO, MARIA EUDOCIA"
SANDWICHERIA,QUE PANHO! QUE SALSA!,SAENZ PE¥A,59,CIUDAD,LUJAN,SAENZ PE¥A 59 CIUDAD LUJAN,-33.03813655,-68.88063975,4985196,834/14,"MIRANDA, CARINA ALEJANDRA"
SANDWICHERIA,ROQUE,RUTA 7,S/N,PUENTE DEL INCA,LAS HERAS,RUTA 7 S/N PUENTE DEL INCA LAS HERAS,-33.93057570,-64.35513340,,433/97,"REYNOSO, ROQUE JULIAN"
CAFERRIA,DUNKEN,PEATONAL SARMIENTO,256,CIUDAD,CAPITAL,PEATONAL SARMIENTO 256 CIUDAD CAPITAL,-32.89020300,-68.84278570,4236668,E/T,RICAS DELICIAS S.A.
RESTAURANTE,LOS PATOS RETAURANTE,RUTA 7,KM.1148,USPALLATA,LAS HERAS,RUTA 7 KM.1148 USPALLATA LAS HERAS,-32.59356010,-69.34896960,02624-420610,747/13,PATO NEVADO S.A.
HOSTERIA,PUNTA DE VACAS,RUTA 7,S/N,PUNTA DE VACAS,LAS HERAS,RUTA 7 S/N PUNTA DE VACAS LAS HERAS,-32.81867070,-69.29833190,,N/T,"HITA, MIRTA"
CAFETERIA,BENITO CAF,ITALIA,5879,CHACRAS DE CORIA,LUJAN,ITALIA 5879 CHACRAS DE CORIA LUJAN,-32.98305110,-68.87810360,,E/T,"BUTTERFIELD, HUMBERTO EDGARDO"
RESTAURANTE,LA CHARAMUSCA,CAMINO A VALLECITOS,KM.8,POTRERILLOS,LUJAN,CAMINO A VALLECITOS KM.8 POTRERILLOS LUJAN,-32.95074080,-69.20562740,4263978,E/T,"FIRPO, ELIDA GRACIELA"
RESTAURANTE,THE VINES OF MENDOZA,BELGRANO,1194,CIUDAD,CAPITAL,BELGRANO 1194 CIUDAD CAPITAL,-32.88770594,-68.84998455,4381031,110/14,VINO TOURISM ARGENTINA S.R.L.
CAF,PUNTO MEDIO,AV.SAN JUAN,1647,CIUDAD,CAPITAL,AV.SAN JUAN 1647 CIUDAD CAPITAL,-34.62243120,-58.38924750,,637/12,"GONZALEZ, ANGEL RAUL"
CAFETERIA,FREDDO,BV.PEREZ CUESTA,3280,MZA.PLAZA SHOPPING,GUAYMALLEN,BV.PEREZ CUESTA 3280 MZA.PLAZA SHOPPING GUAYMALLEN,-32.90195070,-68.79746810,4490152,877/12,BRINA S.A.
RESTAURANTE,FARINATTA,BV.PEREZ CUESTA,3280,MZA.PLAZA SHOPPING,GUAYMALLEN,BV.PEREZ CUESTA 3280 MZA.PLAZA SHOPPING GUAYMALLEN,-32.90195070,-68.79746810,4490905,404/00,BERNARDINA BARABERA Y ROBERTO CICCIU
RESTAURANTE,HOSTERIA PENITENTES,RUTA 7,KM.161,PENITENTES,LAS HERAS,RUTA 7 KM.161 PENITENTES LAS HERAS,-32.84165260,-69.84083680,261-2194436,E/T,"DïARISTOTILE, GASTON MAXIMILIANO"
SANDWICHERIA,MR.DOG,OZAMIS,297,CIUDAD,MAIPU,OZAMIS 297 CIUDAD MAIPU,-32.98872450,-68.79173930,261-2426258,1128/14,"MORICCI, ROBERTO JUAN JOSE"
CAFETERIA,CAF ARGENTINO,AV.ESPA¥A,506,CIUDAD,CAPITAL,AV.ESPA¥A 506 CIUDAD CAPITAL,-32.89613660,-68.84373370,4204765,603/15,"MERCANTE, RAFAEL EDUARDO"
RESTAURANTE,D.K. S.A.,ALEM,555,CIUDAD,CAPITAL,ALEM 555 CIUDAD CAPITAL,-32.89297198,-68.83238693,,392/08,D.K.S.A.
CARRITO-BAR,EL AMIGO,R.PE¥A Y ZARRATEA,S/N,CIUDAD,GODOY CRUZ,R.PE¥A Y ZARRATEA S/N CIUDAD GODOY CRUZ,-32.90952510,-68.85390510,,377/90,"ANGELLO, NESTOR ANGEL"
RESTAURANTE,WINE & CIRCO,EJERCITO DE LOS ANDES,S/N,LA CONSULTA,SAN CARLOS,EJERCITO DE LOS ANDES S/N LA CONSULTA SAN CARLOS,-33.73554300,-69.12031650,,E/T,GAMBETA EMPRENDIMIENTOS S.A.
RESTAURANTE,CUYAN-CO TRUCHAS,CAMINO DEL DIQUE,S/N,DIQUE BLAS BRISOLI,MALARGUE,CAMINO DEL DIQUE S/N DIQUE BLAS BRISOLI MALARGUE,-35.48446200,-69.57974950,0260-154661917,067/05,"GATICA, CESAR RAMON"
HELADERIA,ZUCKERSUSS,MARTINEZ DE ROSAS,1365,CIUDAD,CAPITAL,MARTINEZ DE ROSAS 1365 CIUDAD CAPITAL,-32.88529400,-68.85479620,4292930,406/08,"CASSOLA, CLAUDIA YOLANDA"
HELADERIA,ITALIA,SAENZ PE¥A,195,CIUDAD,LUJAN,SAENZ PE¥A 195 CIUDAD LUJAN,-33.03776752,-68.88238166,4980013,N/T,"CARDIN, ADRIANA DE"
RESTAURANTE,EL CAMIONERO,RUTA 7,S/N,USPALLATA,LAS HERAS,RUTA 7 S/N USPALLATA LAS HERAS,-32.60163020,-69.35134280,02624-420411,73/92,"ALLENDES AGUILERA DE IBARRA,HERMINIA DEL CARMEN"
BAR,SIROCO,PEDRO MOLINA,295,CIUDAD,CAPITAL,PEDRO MOLINA 295 CIUDAD CAPITAL,-32.89608490,-68.84461829,4234060,E/T,"TOSO, BRUNO"
SERVICOMPRAS,LA ROTONDA,BELGRANO,1201,CIUDAD,TUPUNGATO,BELGRANO 1201 CIUDAD TUPUNGATO,-33.37280360,-69.14755830,02622-489094,122/18,YARAS S.A.
RESTAURANTE,PANDOLFI,BANDERA DE LOS ANDES,2668,VILLA NUEVA,GUAYMALLEN,BANDERA DE LOS ANDES 2668 VILLA NUEVA GUAYMALLEN,-32.89690780,-68.80363620,4451773,418/99,"PANDOLFI, JOSE OSVALDO"
CAF-BAR,EL REFUGIO,AV.SAN MARTIN,1186,CIUDAD,TUNUYAN,AV.SAN MARTIN 1186 CIUDAD TUNUYAN,-33.57772380,-69.01642510,02622-424316,312/08,"LOBOS, GRISELDA DANISE"
RESTAURANTE,ANTARES BREW PUB,AV.ARISTIDES VILLANUEVA,153,CIUDAD,CAPITAL,AV.ARISTIDES VILLANUEVA 153 CIUDAD CAPITAL,-32.89249290,-68.85212690,4238327,166/13,CONSTELACIàN SCORPIUS S.A.
SANDWICHERIA,SAN PEDRO,MONTECASEROS Y RUTA 50,S/N,CIUDAD,SAN MARTIN,MONTECASEROS Y RUTA 50 S/N CIUDAD SAN MARTIN,-30.25314580,-57.63655550,0263-1544165478,329/05,"CERDA, ROSA DEL CARMEN"
RESTAURANTE,LA CASONA DE MALARGUE,RUTA 40,S/N,CIUDAD,MALARGUE,RUTA 40 S/N CIUDAD MALARGUE,-35.47909660,-69.58524020,0260-4471341,351/05,"SARICH, MARISA CRISTINA"
BAR,TIBET BAR,LAS HERAS Y RUTA 52,,USPALLATA,LAS HERAS,LAS HERAS Y RUTA 52 USPALLATA LAS HERAS,-32.59110910,-69.34782370,0261-156534699,E/T,"GUZMAN, GISELA PAOLA"
COMPLEJO,AGUAS DEL PIZARRO,RUTA 82,"KM.36,5",CACHEUTA,LUJAN,"RUTA 82 KM.36,5 CACHEUTA LUJAN",-33.01461880,-69.11852430,,E/T,"PEREZ RINALDI, GUSTAVO"
RESTAURANTE,JOCOLI,RUTA 40,KM.42,JOCOLI,LAVALLE,RUTA 40 KM.42 JOCOLI LAVALLE,-32.58939360,-68.66909990,,363/86,"BRAVO, DANTE"
HELADERIA,CEFERINO,SAAVEDRA,1008,CIUDAD,GUAYMALLEN,SAAVEDRA 1008 CIUDAD GUAYMALLEN,-32.89213050,-68.81966230,,120/87,"BRIFFI,ROQUE"
RESTAURANTE,DOWN TOWN,AV.SARMIENTO,755,CIUDAD,CAPITAL,AV.SARMIENTO 755 CIUDAD CAPITAL,-32.88868960,-68.84880910,4293066,057/05,"RODAS, JUAN MANUEL"
HELADERIA,FERRUCCIO SOPPELSA,AV.SAN JUAN,701,CIUDAD,CAPITAL,AV.SAN JUAN 701 CIUDAD CAPITAL,-34.62184530,-58.37576360,,504/09,"BLANCO NOGUERA, JOSE ANOTONIO"
CEFETERIA,LA LIGA,GARIBALDI,83,CIUDAD,CAPITAL,GARIBALDI 83 CIUDAD CAPITAL,-32.89107088,-68.83749657,156502100,097/14,"SIVILA MENDIETA, ELIZABETH"
RESTAURANTE,VECCHIORSO,26 DE JULIO,188,CIUDAD,GRAL.ALVEAR,26 DE JULIO 188 CIUDAD GRAL.ALVEAR,-34.97798820,-67.68938580,02625-15663416,E/T,"SANTON, FRANCESCO"
CAF-BAR,VIVIR,CORONEL RODRIGUEZ,866,CIUDAD,CAPITAL,CORONEL RODRIGUEZ 866 CIUDAD CAPITAL,-32.89074980,-68.85273230,,90/88,"SAT, MARIA"
MINIMARKET,PARADOR RHASA,PANAMERICANA Y MONTECASEROS,S/N,CIUDAD,SAN MARTIN,PANAMERICANA Y MONTECASEROS S/N CIUDAD SAN MARTIN,-30.25314580,-57.63655550,0263-4420916,295/05,"PINEYRA, MONICA"
SANDWICHERIA,LA PULPERIA,ADOLFO CALLE,778,DORREGO,GUAYMALLEN,ADOLFO CALLE 778 DORREGO GUAYMALLEN,-32.89982890,-68.82738300,,E/T,"HANNONUN, MATIAS SEBASTIAN"
PIZZERIA,LA TABA CLUB,20 DE SETIEMBRE,39,CIUDAD,LUJAN,20 DE SETIEMBRE 39 CIUDAD LUJAN,-34.56333120,-59.12088050,4980497,113/18,"ACOSTA, PABLO RAMIRO"
SANDWICHERIA,YA CE,RUTA 40,KM.78,CIUDAD,TUNUYAN,RUTA 40 KM.78 CIUDAD TUNUYAN,-33.58286240,-69.01599860,02622-424311,N/T,"CASTILLO, MARGARITA ERMINIA"
CONF.BAILABLE,NATAN,RUTA PANAMERICANA,KM.24,,LUJAN,RUTA PANAMERICANA KM.24 LUJAN,-34.56333120,-59.12088050,4901062,421/83,"CAVAGNARO, ELSO"
PARRILLADA,LOS TURQUITOS,RUTA NACIONAL 143,S/N,SALTO DE LAS ROSAS,SAN RAFAEL,RUTA NACIONAL 143 S/N SALTO DE LAS ROSAS SAN RAFAEL,-34.72675460,-68.23102330,,235/93,"ALAM, ROQUE ELIAS"
RESTAURANTE,PIACERE CHACRAS,MITRE,1426,CHACRAS DE CORIA,LUJAN,MITRE 1426 CHACRAS DE CORIA LUJAN,-32.98713780,-68.88512800,4960925,136/18,MENDOZA ALGIUS S.A.
CAFETERIA,LE TRAIN,BELGRANO,1415,CIUDAD,CAPITAL,BELGRANO 1415 CIUDAD CAPITAL,-32.89101683,-68.83751803,,E/T,"REBMAN, CARLOS"
PIZZERIA,VALENTINO PIZZA,SAN MARTIN,67,CIUDAD,MAIPU,SAN MARTIN 67 CIUDAD MAIPU,-32.98378060,-68.78941540,4815823,329/08,"VEGA, DANIEL FERANDO"
BAR,LEROT,AV.ARISTIDES VILLANUEVA,263,CIUDAD,CAPITAL,AV.ARISTIDES VILLANUEVA 263 CIUDAD CAPITAL,-32.89220730,-68.85408300,4204362,572/17,"QUEVEDO, MARIA BELEN"
RESTAURANTE,EL ARCE,RUTA 7,KM866,DESAGUADERO,LA PAZ,RUTA 7 KM866 DESAGUADERO LA PAZ,-33.40590120,-67.15779550,,E/T,"ARCE, RAFAEL"
RESTO-BAR,AZAR,AMAGHINO,350,CIUDAD,SAN RAFAEL,AMAGHINO 350 CIUDAD SAN RAFAEL,37.97353460,-122.53108740,260-154597902,125/18,"SILVA, RAFEL LUCIANO"
COMIDA RAPIDA,MELIPAL,PARQUE PROVINCIAL ACONCAGUA,S/N,PARQUE ACONCAGUA,LAS HERAS,PARQUE PROVINCIAL ACONCAGUA S/N PARQUE ACONCAGUA LAS HERAS,-32.65317900,-70.01086750,,632/03,"ESPINOLA, MARIA PAULA"
HELADERIA,FRIOS,PELLEGRINI,180,CIUDAD,TUNUYAN,PELLEGRINI 180 CIUDAD TUNUYAN,-33.57766570,-69.01863540,2600-423199,579/17,"SELESAN, MARIA ALEJANDRA"
CAFETERIA,BISHR,AV.BULOGNE SUR MER,90,CIUDAD,SAN MARTIN,AV.BULOGNE SUR MER 90 CIUDAD SAN MARTIN,-34.68780650,-58.52122610,0263-4422222,43/04,"NAVARRETE, SILVIA MABEL"
PIZZERIA,AVENIDA,ITALIA,368,PALMIRA,SAN MARTIN,ITALIA 368 PALMIRA SAN MARTIN,-33.05165416,-68.56056506,,N/T,"WOOBS,HECTOR"
CAFETERIA,STARBUCKS COFFEE,BV.PEREZ CUESTA,3280,MZA.PLAZA SHOPPING,GUAYMALLEN,BV.PEREZ CUESTA 3280 MZA.PLAZA SHOPPING GUAYMALLEN,-32.90195070,-68.79746810,4490182,1281/14,STARBUKS COFFEE ARGENTINA S.R.L.
HELADERIA,ROMA UNO,9 DE JULIO,95,CIUDAD,SAN MARTIN,9 DE JULIO 95 CIUDAD SAN MARTIN,-33.08213494,-68.47229105,0263-4421551,E/T,"BRIFFE, MABEL GLADYS"
BAR,AL JUAN,LAS HERAS,S/N,USPALLATA,LAS HERAS,LAS HERAS S/N USPALLATA LAS HERAS,-32.59108270,-69.34788360,02624-420496,609/14,"ARRIETA, HECTOR FEDERICO"
RESTAURANTE,EL AMASIJO,UGARTE,802,LA PUNTILLA,LUJAN,UGARTE 802 LA PUNTILLA LUJAN,-34.56333120,-59.12088050,4441747,N/T,"MARQUESINI, ERNESTO"
RESTAURANTE,CLUB AGUSTIN ALVARES,LAVALLE,540,CIUDAD,RIVADAVIA,LAVALLE 540 CIUDAD RIVADAVIA,-31.53715760,-68.57380750,,N/T,"GUTIERREZ, OSCAR ORLANDO (CONSECIONARIO)"
CONF.BAILABLE,VIVA MARIA,CALLE 1-M.C-LOTE 19,S/N,VISTALBA,LUJAN,CALLE 1-M.C-LOTE 19 S/N VISTALBA LUJAN,-33.02709860,-68.90705650,,264/84,"PAJARO, OSCAR Y LOPEZ, CARLOS"
CONF.BAILABLE,GARAJE,BALLOFET,3007,CIUDAD,SAN RAFAEL,BALLOFET 3007 CIUDAD SAN RAFAEL,-34.64014280,-68.37132370,,132/93,"BRUNI, GABRIELA RODRIGUEZ DE"
RESTAURANTE,PUESTO LAS TINAJAS,ACC.LOS JILGUEROS,S/N,CUADRO BENEGAS,SAN RAFAEL,ACC.LOS JILGUEROS S/N CUADRO BENEGAS SAN RAFAEL,-34.62657740,-68.43202920,,273/93,"TORRES, JUAN CARLOS"
CAF,BIANCO & NERO,PEATONAL SARMIENTO,50,CIUDAD,CAPITAL,PEATONAL SARMIENTO 50 CIUDAD CAPITAL,-32.89067970,-68.84014990,5243344,053/13,RODATI S.A.
RESTAURANTE,CHEF HOUSE,PEDRO MOLINA,173,CIUDAD,CAPITAL,PEDRO MOLINA 173 CIUDAD CAPITAL,"-32.89617162189425, -68.84328697465233",,4298759,E/T,"MARQUEZ, FEDERICO"
SANDWICHERIA,SUPER PANCHO,COLON,15,CIUDAD,GODOY CRUZ,COLON 15 CIUDAD GODOY CRUZ,-32.92475960,-68.84514560,261-5358539,089/18,"GRAZIOTIN, CLAUDIO FABIAN"
HELADERIA,VICENZO,J.V.GONZALEZ,450,HIPER.LIBERTAD,GODOY CRUZ,J.V.GONZALEZ 450 HIPER.LIBERTAD GODOY CRUZ,-32.92862680,-68.85839630,,029/05,"VICENTE, BERTA LILIANA"
RESTAURANTE,HOSTEL CILIX,VALLE DE LAS LE¥AS,,VALLE DE LAS LE¥AS,MALARGUE,VALLE DE LAS LE¥AS VALLE DE LAS LE¥AS MALARGUE,-35.48446200,-69.57974950,,E/T,NIEVE RESIDENCIA S.A.
SANDWICHERIA,SHADOW,AV.SAN MARTIN SUR,1199,BENEGAS,GODOY CRUZ,AV.SAN MARTIN SUR 1199 BENEGAS GODOY CRUZ,-32.93808960,-68.85025730,4223773,599/97,"CABALLERO, MARIO VICENTE RAMON"
CONF.BAILABLE,PATIO DE TANGO,MONTECASEROS,1159,CIUDAD,CAPITAL,MONTECASEROS 1159 CIUDAD CAPITAL,-32.89056090,-68.83145860,,103/87,"CASCONE, JORGE Y CASCONE, DANIEL"
CONFITERIA,DUNKEN,PEATONAL SARMIENTO,256,CIUDAD,CAPITAL,PEATONAL SARMIENTO 256 CIUDAD CAPITAL,-32.89020300,-68.84278570,4236668,383/08,"FUNES MARTY, JUAN ADOLFO"
SANDWICHERIA,LA CURVA,BANDERA DE LOS ANDES,3242,VILLA NUEVA,GUAYMALLEN,BANDERA DE LOS ANDES 3242 VILLA NUEVA GUAYMALLEN,-32.89764210,-68.79743610,4265037,178/87,"DEL MATTO, RICARDO"
BAR,CURIOSA,AV.ARISTIDES VILLANUEVA,426,CIUDAD,CAPITAL,AV.ARISTIDES VILLANUEVA 426 CIUDAD CAPITAL,-32.89213520,-68.85725000,,399/17,"SCALZI, RAUL"
RESTAURANTE,DELFI,RUTA 7,S/N,POTRERILLOS,LUJAN,RUTA 7 S/N POTRERILLOS LUJAN,-32.94924250,-69.20969630,,N/T,"PEREIRA, MARIA BEATRIZ"
HELADERIA,ANGELINI,PADRE VAZQUEZ,217,CIUDAD,MAIPU,PADRE VAZQUEZ 217 CIUDAD MAIPU,-32.98371560,-68.78860890,4977156,E/T,"ABAD, ANGEL EUGENIO"
CAF,EROS,MORALES,378,CIUDAD,GRAL.ALVEAR,MORALES 378 CIUDAD GRAL.ALVEAR,-34.97798820,-67.68938580,02625-424261,E/T,"SAEZ, VICENTE ABEL"
RESTAURANTE,GASPARETTO,EL NIHUIL,450,CIUDAD,GODOY CRUZ,EL NIHUIL 450 CIUDAD GODOY CRUZ,-32.93379920,-68.85324050,4561677,E/T,MENDOZA ALGIUS S.A.
HELADERIA,BALESTRA,CORONEL DIAZ,439,CIUDAD,CAPITAL,CORONEL DIAZ 439 CIUDAD CAPITAL,-32.86660530,-68.82828950,,N/T,"BALLESTRA, JOSE"
RESTAURANTE,LA MARIANA COCINA,RUTA PANAMERICANA,"KM.31,82",COLONIA SUIZA,LAS HERAS,"RUTA PANAMERICANA KM.31,82 COLONIA SUIZA LAS HERAS",-41.09531250,-71.51050570,155467070,E/T,"TOLEDO, MARIANA"
RESTAURANTE,LA ALAMEDA,AV.PEDRO VARGAS,1961,CIUDAD,SAN RAFAEL,AV.PEDRO VARGAS 1961 CIUDAD SAN RAFAEL,-34.63368200,-68.34178330,0260-4434850,62/04,"BARAHONA, DAVID ROBERTO"
RESTAURANTE,ALBA,PERU,3332,CIUDAD,CAPITAL,PERU 3332 CIUDAD CAPITAL,-9.18996700,-75.01515200,4301830,49/85,"ALBA, ANGEL"
RESTAURANTE,ALMACEN ESPA¥OL,DARRAGUEIRA,558,CHACRAS DE CORIA,LUJAN,DARRAGUEIRA 558 CHACRAS DE CORIA LUJAN,-32.97441940,-68.87555360,4961741,E/T,"JURY, EDUARDO JAVIER"
RESTAURANTE,BODEGA MELIPAL,RUTA 7 KM.1056,,AGRELO,LUJAN,RUTA 7 KM.1056 AGRELO LUJAN,-34.55112780,-59.11042900,5248040,875/14,VI¥AS FAMILIA ARISTI S.A.
RESTAURANTE,ZUR COCINA...VINO Y ARTE,MARIANO MORENO,111,CIUDAD,CAPITAL,MARIANO MORENO 111 CIUDAD CAPITAL,-32.90214593,-68.85355285,4284170,E/T,"TOLEDO, MARIA FERNANDA"
CARRITO-BAR,EL PORTUGUES-CARRITO BAR,INDEPENDENCIA,237,CIUDAD,GODOY CRUZ,INDEPENDENCIA 237 CIUDAD GODOY CRUZ,-32.92722070,-68.82138810,,N/T,"MONARDES,MIGUEL ANGEL Y ANGEL CARLOS"
RESTAURANTE,CUMBRES ARGENTINAS,PLAZA DE MULAS,S/N,,LAS HERAS,PLAZA DE MULAS S/N LAS HERAS,-32.64931410,-70.05759460,4310803,176/11,DALLASTA ALFREDO
BAR,FLORENTINO CAF BISTRO,MONTEVIDEO,675,CIUDAD,CAPITAL,MONTEVIDEO 675 CIUDAD CAPITAL,-34.90550160,-56.18511470,4649077,477/11,FLORES Y FLORES S.H.
HELADERIA,EDUARDO III,AV.SAN MARTIN SUR,1163,CIUDAD,GODOY CRUZ,AV.SAN MARTIN SUR 1163 CIUDAD GODOY CRUZ,-32.93774590,-68.85047120,,507/86,"FERNANDEZ,ELSA"
PARRILLADA,MI KINCHO,PEDRO VARGAS,2221,CIUDAD,SAN RAFAEL,PEDRO VARGAS 2221 CIUDAD SAN RAFAEL,-34.61289220,-68.33906220,,236/93,"BONICELLI, HUMBERTO"
CARRITO-BAR,TITOS,GUEMES,320,CIUDAD,GUAYMALLEN,GUEMES 320 CIUDAD GUAYMALLEN,-32.89552280,-68.82832730,4317629-4315365,674/97,"MEDINA, ISABEL"
CARRITO-BAR,LA JUANITA,EL SALTO,5500,LAS PAREDES,SAN RAFAEL,EL SALTO 5500 LAS PAREDES SAN RAFAEL,-34.58333300,-68.45000000,0260-4573784,140/18,"LUNA ASSAD, MAYRA AYELEN"
CONFITERIA,BWLIEVE IRISH PUB IRLANDES,AV.COLON,241,CIUDAD,CAPITAL,AV.COLON 241 CIUDAD CAPITAL,-32.89424780,-68.84360240,,E/T,"RODRIGUEZ, GONZALO DAVID"
PANCHERIA,PANCHO GRANDE,GRAL.PAZ,244,CIUDAD,CAPITAL,GRAL.PAZ 244 CIUDAD CAPITAL,-32.88478570,-68.84103050,4200270,E/T,EMPRENDIMIENTOS GASTRONOMICOS P&G S.A.
RESTAURANTE,PAREDITAS,RUTA 40,KM.3175,PAREDITAS,SAN CARLOS,RUTA 40 KM.3175 PAREDITAS SAN CARLOS,-33.76783130,-69.05908280,02622-493061,E/T,"VIDELA, MARIANO"
RESTAURANTE,LOS CACTUS CACHEUTA,RUTA 82,KM38,CACHEUTA,LUJAN,RUTA 82 KM38 CACHEUTA LUJAN,-33.01461880,-69.11852430,02624-490159,194/17,LOS CACTUS CACHEUTA S.A.
CARRITO,PAPAS FRITAS SHOW,AV.CHAMPAGNAT,639,,LAS HERAS,AV.CHAMPAGNAT 639 LAS HERAS,-32.85942210,-68.88421780,,689/97,"AMADO, MARIN"
CANTINA,CENTRO EMPL.COMERCIO,MATHUS HOYO,2525,BERMEJO,GUAYMALLEN,MATHUS HOYO 2525 BERMEJO GUAYMALLEN,-32.86865510,-68.79054320,4511073,696/97,"CAROL, DANIEL NESTOR"
RESTAURANTE,CABORANA PLAYA,PERILAGO DIQUE VALLE GRANDE,,EL NIHUIL,SAN RAFAEL,PERILAGO DIQUE VALLE GRANDE EL NIHUIL SAN RAFAEL,-34.84797650,-68.52024340,0260-4593908,E/T,"BIANCJI, ALDO MARCELO"
SANDWICHERIA,EL POPO,BANDERA DE LOS ANDES,5208,VILLA NUEVA,GUAYMALLEN,BANDERA DE LOS ANDES 5208 VILLA NUEVA GUAYMALLEN,-32.90738860,-68.77986750,4213803,709/97,"PERALTA, GERMAN ANGEL"
CAFETERIA,FARO,SARMIENTO,30,SAN JOSE,GUAYMALLEN,SARMIENTO 30 SAN JOSE GUAYMALLEN,-32.89951290,-68.80376330,4233169,E/T,M Y T SERVICIOS COMERCIALES S.A.
BAR,NITZA FOREVER,REMEDIOS DE ESCALADA DE SAN MARTIN,2253,CIUDAD,CAPITAL,REMEDIOS DE ESCALADA DE SAN MARTIN 2253 CIUDAD CAPITAL,-34.67856980,-58.40584310,4299356,856/14,"PALACIO, RODRIGO ALBERTO"
CARRITO-BAR,BOULEVAR RIVADAVIA,SGTO.CABRAL Y CONSTITUCION,S/N,CIUDAD,RIVADAVIA,SGTO.CABRAL Y CONSTITUCION S/N CIUDAD RIVADAVIA,-35.33064330,-72.41039620,,480/87,"JOSE, ELIAS SAMUEL"
RESTAURANTE,BODEGAS SALENTEIN,RUTA,89,LOS ARBOLES,TUNUYAN,RUTA 89 LOS ARBOLES TUNUYAN,-33.58131850,-69.01533610,4411000,171/11,BODEGAS SALENTEIN
RESTAURANTE,MARIA ANTONIETA,BELGRANO,1069,CIUDAD,CAPITAL,BELGRANO 1069 CIUDAD CAPITAL,-32.88910077,-68.84949695,4204322,1035/13,LAS PEONIAS S.A.
CAF-PASTELERIA,CHURRICO,O'BRIEN,100,SAN JOSE,GUAYMALLEN,O'BRIEN 100 SAN JOSE GUAYMALLEN,-32.88773600,-68.82819560,4455348,147/83,AGUERO DANIEL
PANCHERIA,MANSO PANCHO,AV.SAN MARTIN SUR,2055,BENEGAS,GODOY CRUZ,AV.SAN MARTIN SUR 2055 BENEGAS GODOY CRUZ,-32.94597180,-68.85268580,4233553,021/15,AMERICAN FOOD S.A
RESTAURANTE,RINCON SUIZO,RUTA PANAMERICANA,KM.29,COLONIA SUIZA,LUJAN,RUTA PANAMERICANA KM.29 COLONIA SUIZA LUJAN,-34.56333120,-59.12088050,02624-156523708-156504346,631/95,
SANDWICHERIA,MC.DONALD'S,RUTA PANAMERICANA,2650,PALMARES,GODOY CRUZ,RUTA PANAMERICANA 2650 PALMARES GODOY CRUZ,-32.95570440,-68.85890340,4401115,707/97,ARCOS MENDOCINOS S.A.
CAF-BAR,MC POCHO,RUTA 7,S/N,USPALLATA,LAS HERAS,RUTA 7 S/N USPALLATA LAS HERAS,-32.60163020,-69.35134280,02624-420043,E/T,"VILLAMEA, ESTANISLAO"
HELADERIA,PLAZA BASTI,AV.HIPOLITO IRIGOYEN,1310,CIUDAD,SAN RAFAEL,AV.HIPOLITO IRIGOYEN 1310 CIUDAD SAN RAFAEL,-34.61049300,-68.34595000,,159/05,"RODRIGUEZ, MARIA DANIELA"
BAR,ZINC BAR,AV.ARISTIDES VILLANUEVA,161,CIUDAD,CAPITAL,AV.ARISTIDES VILLANUEVA 161 CIUDAD CAPITAL,-32.89252570,-68.85231320,155091588,067/16,"CONTE, CARLOS ADRIANO"
RESTAURANTE,BODEGAS Y VI¥EDOS FLORIO,VIDELA ARANDA,2301,CRUZ DE PIEDRA,MAIPU,VIDELA ARANDA 2301 CRUZ DE PIEDRA MAIPU,-33.03108980,-68.77721950,4990053,E/T,MERALVA S.A.
SANDWICHERIA,FUNDIOLA LOMOS,AGUINAGA,1396,CHACRAS DE CORIA,LUJAN,AGUINAGA 1396 CHACRAS DE CORIA LUJAN,-32.98608390,-68.88347080,4961722,530/13,FUNDIOLA S.A.
RESTAURANTE,PALADARES,BV.PEREZ CUESTA,3280,MZA.PLAZA SHOPPING,GUAYMALLEN,BV.PEREZ CUESTA 3280 MZA.PLAZA SHOPPING GUAYMALLEN,-32.90195070,-68.79746810,4490908,1226/14,COCINA TRADICIONAL S.A.
KIOSCO,CERRO DE LA GLORIA,CERRO DE LA GLORIA,S/N,PARQUE GRAL.SAN MARTIN,CAPITAL,CERRO DE LA GLORIA S/N PARQUE GRAL.SAN MARTIN CAPITAL,-32.88872890,-68.89118350,,031/05,"GAUNA,LUIS"
RESTAURANTE,SIN NOMBRE,RUTA PROV.82,"KM 35,5",CACHEUTA,LUJAN,"RUTA PROV.82 KM 35,5 CACHEUTA LUJAN",-33.01461880,-69.11852430,02624-490140,E/T,"RINALDI, ROSA"
CONF.BAILABLE,AL DIABLO,RUTA PANAMERICANA,S/N,,LUJAN,RUTA PANAMERICANA S/N LUJAN,-34.56333120,-59.12088050,,48/93,"SACGLIA,CARLOS DANIEL"
SANDWICHERIA,LAS VISCACHERAS,LAS VISCACHERAS,S/N,PARQUE GRAL.SAN MARTIN,CAPITAL,LAS VISCACHERAS S/N PARQUE GRAL.SAN MARTIN CAPITAL,-32.88539066,-68.87000563,,373/07,"SACOLLE, RICARDO"
BAR,LA CORDILLERA S.R.L.,AV. SAN MARTIN,1111,CIUDAD,MALARGUE,AV. SAN MARTIN 1111 CIUDAD MALARGUE,-35.47821090,-69.58489310,0260-4471089,474/04,"BUJALDON, ARNALDO"
PIZZERIA,7,COSTANERA NORTE,2309,PEDRO MOLINA,GUAYMALLEN,COSTANERA NORTE 2309 PEDRO MOLINA GUAYMALLEN,-32.87500000,-68.81694400,,377/86,"ORTIZ, RAIMUNDO L."
RESTAURANTE,CASA DEL VISITANTE,RUTA 33,"KM 7,5",FRAY LUIS BELTRAN,MAIPU,"RUTA 33 KM 7,5 FRAY LUIS BELTRAN MAIPU",-33.00661690,-68.64982230,4410000,364/14,VI¥A SANTA JULIA S.A.
RESTAURANTE,HOSTERIA EL NIHUIL,EL NIHUIL,S/N,EL NIHUIL,SAN RAFAEL,EL NIHUIL S/N EL NIHUIL SAN RAFAEL,-35.02877640,-68.67258910,0260-4494009,655/03,"GIMENEZ, MIRTA TERESITA"
RESTO-BAR,LA BOTICA,AV.SAN MARTIN,1072,CIUDAD,GODOY CRUZ,AV.SAN MARTIN 1072 CIUDAD GODOY CRUZ,-32.91367860,-68.84558160,4242950,488/04,"MASCARELL, HECTOR"
HELADERIA,GREEN,AVELLANEDA,57,CIUDAD,SAN RAFAEL,AVELLANEDA 57 CIUDAD SAN RAFAEL,-34.66107560,-58.36697390,,082/93,HEUNG -SHIK KYUNG
RESTAURANTE,LA CASITA DE ALE,AV.DEL SOL,S/N,POTRERILLOS,LUJAN,AV.DEL SOL S/N POTRERILLOS LUJAN,-33.01610190,-69.18814770,,423/12,"CHIAPPETTA, CARLOS ALBERTO"
SANDWICHERIA,TERRANOVA,AMEGHINO,6,CIUDAD,SAN RAFAEL,AMEGHINO 6 CIUDAD SAN RAFAEL,-34.84521680,-62.46642750,0260-4427335,479/04,"EDGARDO, NARVAEZ"
RESTAURANTE,LA PAZ,RUTA 7,KM. 900,LA PAZ,LA PAZ,RUTA 7 KM. 900 LA PAZ LA PAZ,-16.52265540,-68.08518710,02626-421351,459/04,SUSANA BEATRIZ MUSETTO DE ROLDAN
CAF-BAR,EL DESVIO,RUTA 144,S/N,EL NIHUIL,SAN RAFAEL,RUTA 144 S/N EL NIHUIL SAN RAFAEL,-34.90778140,-68.90040350,,551/94,ESTER CHAPOSCHNIKOFF
RESTAURANTE,BET EL PORTAL DE MENDOZA,RUTA 40,KM3338,JOCOLI,LAVALLE,RUTA 40 KM3338 JOCOLI LAVALLE,-32.58939360,-68.66909990,156291611,E/T,"CA¥IZARE, CLAUDIA GISEL"
CAF-BAR,CARA Y CECA,AV.ARISTIDES VILLANUEVA,290,CIUDAD,CAPITAL,AV.ARISTIDES VILLANUEVA 290 CIUDAD CAPITAL,-32.89262290,-68.85462620,4340007,E/T,FALUBA S.A.
CAF-BAR,PARIS,SARMIENTO Y PAMPA,S/N,CIUDAD,GUAYMALLEN,SARMIENTO Y PAMPA S/N CIUDAD GUAYMALLEN,-32.90282080,-68.80470040,4450675,N/T,"PARIS, JUSTO"
HELADERIA,SILVIA ANDREA,AV.SAN MARTIN,913,CIUDAD,TUNUYAN,AV.SAN MARTIN 913 CIUDAD TUNUYAN,-33.58050070,-69.01579490,02622-422523,767/97,"COMPAN, BERNARDO"
RESTAURANTE,QUINTA NORTE,AV.MITRE,1206,CIUDAD,CAPITAL,AV.MITRE 1206 CIUDAD CAPITAL,-32.88837490,-68.84446190,4253923,984/13,TRABAJADORES GASTRONOMICOS ASOCIADOS
RESTAURANTE,LA ESTANCIA GRILL,LAS CA¥AS,1883,LA BARRACA MALL,GUAYMALLEN,LAS CA¥AS 1883 LA BARRACA MALL GUAYMALLEN,-32.91588920,-68.82197320,4598087,132/18,LA ESTANCIA GRILL TUPUNGATO S.A.
BAR,ASTOR,SAN MARTIN,276,CIUDAD,LUJAN,SAN MARTIN 276 CIUDAD LUJAN,-34.56471420,-59.11844210,,066/05,"BEGUE, ANA MARIA"
CONFITERIA-BAR,LUFRAN,RUTA 7,S/N,USPALLATA,LAS HERAS,RUTA 7 S/N USPALLATA LAS HERAS,-32.60163020,-69.35134280,02624-420066,E/T,"CARRASCO, DELIA ROSA"
CONF.BAILABLE,JAQUE,BALLOFET,1903,CIUDAD,SAN RAFAEL,BALLOFET 1903 CIUDAD SAN RAFAEL,-34.62917170,-68.35889100,,51/85,"HERRERO, LUIS ALBERTO"
RESTAURANTE,COMO OLVIDARTE,AV.HIPOLITO IRIGOYEN,355,CIUDAD,SAN RAFAEL,AV.HIPOLITO IRIGOYEN 355 CIUDAD SAN RAFAEL,-34.61486090,-68.33442020,,855/14,"PERALTA, NESTOR"
SERVICOMPRAS,LUIS G.POZOBON S.R.L.,MAZA E YRIGOYEN,,GRAL.GUTIERREZ,MAIPU,MAZA E YRIGOYEN GRAL.GUTIERREZ MAIPU,-32.95074080,-68.79914090,4973654,E/T,"POZOBON, LUIS E HIJOS S.R.L."
BAR,PRODUCTO NACIONAL,AV.HIPOLITO IRIGOYEN,1578,CIUDAD,SAN RAFAEL,AV.HIPOLITO IRIGOYEN 1578 CIUDAD SAN RAFAEL,-34.60930030,-68.34924480,0260-1545377272,050/05,"RUFFO, ELENA NOEMI"
SANDWICHERIA,SHALAKO,AV.HIPOLITO IRIGOYEN,510,CIUDAD,SAN RAFAEL,AV.HIPOLITO IRIGOYEN 510 CIUDAD SAN RAFAEL,-34.61405230,-68.33610690,0260-4425250,N/T,"FERNANDEZ DE VILLAR, DALILA"
RESTAURANTE,INTI-CO,VILLA 25 DE MAYO,S/N,LOS REYUNOS,SAN RAFAEL,VILLA 25 DE MAYO S/N LOS REYUNOS SAN RAFAEL,-34.58565270,-68.54572680,,E/T,"MELLA, MAURO GABRIEL"
CONF.BAILABLE,CRAZY,ADOLFO CALLE,2800,EL CERRITO,SAN RAFAEL,ADOLFO CALLE 2800 EL CERRITO SAN RAFAEL,-34.58829810,-68.31871360,,228/93,"SALOMONE, LORENZO"
SANDWICHERIA,MR.DOG,ALEM,529,CIUDAD,CAPITAL,ALEM 529 CIUDAD CAPITAL,-32.89286791,-68.83272095,4323003,126/18,"FORNIES, ALFREDO GUILLERMO"
BAR,ALTOS DEL SOL,SAN MARTIN,153,CIUDAD,SAN RAFAEL,SAN MARTIN 153 CIUDAD SAN RAFAEL,37.97353460,-122.53108740,0260-4438120,259/05,"GUZZO, LUIS SALVADOR"
CAFETERIA,MAXIMO CAF,9 DE JULIO,1210,CIUDAD,CAPITAL,9 DE JULIO 1210 CIUDAD CAPITAL,-32.88897417,-68.84063496,,845/15,"LUCERO, ALEJANDRO RAFAEL"
CAF,DON FELIX,MDO.COOP.GLLEN.,S/N,,GUAYMALLEN,MDO.COOP.GLLEN. S/N GUAYMALLEN,-32.90282080,-68.80470040,,211/82,"MORALES, VICTORINO"
RESTAURANTE,CONCEPTO OLIVA,OZAMIS,1476,CIUDAD,MAIPU,OZAMIS 1476 CIUDAD MAIPU,-32.96723870,-68.78594000,261-6529393,069/18,"SAEZ, FEDERICO"
CONF.BAILABLE,SHI RYU,ROMERO DAY,S/N,EL CHALLAO,LAS HERAS,ROMERO DAY S/N EL CHALLAO LAS HERAS,-32.85239040,-68.89623140,4202133-4442395,219/99,"JOVER, HECTOR"
HELADERIA,FERRUCCIO SOPPELSA,ESPEJO,299,CIUDAD,CAPITAL,ESPEJO 299 CIUDAD CAPITAL,-32.88945870,-68.84583860,4254114,E/T,"SOPPELSA, LUIS AUGUSTO"
PIZZERIA,LA PALMERA,AV.SAN MARTIN,880,CIUDAD,GODOY CRUZ,AV.SAN MARTIN 880 CIUDAD GODOY CRUZ,-32.91547230,-68.84612360,4223339,010/05,"MALDONADO, DANTE ARIEL"
RESTAURANTE,NAHUEL,ACCESO ESTE LATERAL SUR,2089,VILLA NUEVA,GUAYMALLEN,ACCESO ESTE LATERAL SUR 2089 VILLA NUEVA GUAYMALLEN,-32.89841760,-68.81190300,,230/83,"ROSSI, CARLOS"
RESTAURANTE,LOS MAICITOS,RUTA PANAMERICANA,KM1000,BUEN ORDEN,SAN MARTIN,RUTA PANAMERICANA KM1000 BUEN ORDEN SAN MARTIN,-33.08064970,-68.47057000,0263-4431414,E/T,"MAIZ, JUAN ALDO"
RESTAURANTE,ITAMAE SUSHI MENDOZA,MONTEVIDEO,708,CIUDAD,CAPITAL,MONTEVIDEO 708 CIUDAD CAPITAL,-34.90550160,-56.18511470,4251170,E/T,EDO S.A.
RESTAURANTE,EL FARO BISTRO,AV.ESPA¥A,948,CIUDAD,CAPITAL,AV.ESPA¥A 948 CIUDAD CAPITAL,-32.89178140,-68.84264270,4252253,E/T,LAS LILAS S.A.
RESTAURANTE,MIRAFLORES,AV.ESPA¥A,1159,CIUDAD,CAPITAL,AV.ESPA¥A 1159 CIUDAD CAPITAL,-32.88958580,-68.84158300,4299693,E/T,"VALDEZ, BERTA GLADYS"
CAFETERIA,LOS JUJE¥OS,AV.GODOY CRUZ,71,CIUDAD,CAPITAL,AV.GODOY CRUZ 71 CIUDAD CAPITAL,-32.88371600,-68.83855580,4305464,861/14,"PASTOR, DANIEL EDGARDO"
SANDWICHERIA,LA POSTA DE LOS OLIVOS,SARMIENTO,500,CIUDAD,GODOY CRUZ,SARMIENTO 500 CIUDAD GODOY CRUZ,-32.93828270,-68.84152480,4350171,544/87,"SOTTANO,JUAN CARLOS"
CAFETERIA,MG CAF,AV.SAN MARTIN,719,CIUDAD,CAPITAL,AV.SAN MARTIN 719 CIUDAD CAPITAL,-32.89464820,-68.84009900,4202650,543/12,"MOSSO, MARIA GABRIELA"
PIZZERIA,MASCALZZONE,AV.JUAN B.JUSTO,114,CIUDAD,CAPITAL,AV.JUAN B.JUSTO 114 CIUDAD CAPITAL,-32.88426050,-68.85043590,4237478,522/08,"CASTILLO, NESTOR JAVEIR"
CAFETERIA,DUNKEN,PEATONAL SARMIENTO,256,CIUDAD,CAPITAL,PEATONAL SARMIENTO 256 CIUDAD CAPITAL,-32.89020300,-68.84278570,4236668,E/T,RICAS DELICIAS S.A.
BALNEARIO,AQUAPARK,ACC.SUR,1836,DORREGO,GUAYMALLEN,ACC.SUR 1836 DORREGO GUAYMALLEN,-33.02567700,-68.86057280,4271623,53/94,"BARBVEITO, JORGE"
RESTAURANTE,MC.DONALD'S,RUTA PANAMERICANA,2650,PALMARES,GODOY CRUZ,RUTA PANAMERICANA 2650 PALMARES GODOY CRUZ,-32.95570440,-68.85890340,4395050,91/08,ARCOS MENDOCINOS S.A.
PIZZERIA,SHAGGINIïS,ADOLFO CALLE,2834,VILLA NUEVA,GUAYMALLEN,ADOLFO CALLE 2834 VILLA NUEVA GUAYMALLEN,-32.90303900,-68.80437630,4218421,28/98,"ASSELBORN, OLGA SUSANA"
HELADERIA,SANTILLI,SAN MARTIN,1258,CIUDAD,TUNUYAN,SAN MARTIN 1258 CIUDAD TUNUYAN,-33.57680890,-69.01657020,,010/93,"SANTILLI, TEOBALDO DOMINGO"
RESTAURANTE,SAN FRANCISCO,RUTA 7,S/N,BUEN ORDEN,SAN MARTIN,RUTA 7 S/N BUEN ORDEN SAN MARTIN,-33.06752040,-68.46747270,0263-4422500,42/06,"GONZALEZ, CRISTIAN MARTIN"
RESTAURANTE,NAPOLETANO,AV.COLON,502,CIUDAD,CAPITAL,AV.COLON 502 CIUDAD CAPITAL,-32.89381730,-68.84755090,4236580,180/18,KEEP GOING S.R.L.
PARRILLADA,SAN JAVIER,RUTA NACIONAL 143,KM.23,,SAN RAFAEL,RUTA NACIONAL 143 KM.23 SAN RAFAEL,-34.62433880,-68.36949440,,318/93,"SPINELLO, ROSARIO CARMELO"
CONFITERIA,LIVERPOOL,AV.SAN MARTIN,1002,CIUDAD,CAPITAL,AV.SAN MARTIN 1002 CIUDAD CAPITAL,-32.89158000,-68.83985190,4201622,090/18,"ZAPATA, SATURNINO"
CAFETERIA,CONGRESO,9 DE JULIO,686,CIUDAD,CAPITAL,9 DE JULIO 686 CIUDAD CAPITAL,-32.89501517,-68.84207845,155860692,E/T,"BERENGER, OMAR ALBERTO"
CAFETERIA,FLAKOS,GUTIERREZ,420,CIUDAD,CAPITAL,GUTIERREZ 420 CIUDAD CAPITAL,-32.88751950,-68.84438496,4251104,192/07,"GONZALEZ, CONRADO DANTE"
PANADERIA,LA CATALANA,GARIBALDI,291,CIUDAD,CAPITAL,GARIBALDI 291 CIUDAD CAPITAL,-32.89127211,-68.83474728,4203066,E/T,UEN S.A.
HELADERIA,TIO VICENTE,MAZA,379,CIUDAD,MAIPU,MAZA 379 CIUDAD MAIPU,-33.51058660,-70.75726070,,533/86,"CABALLER, VICENTE"
RESTAURANTE,VILLAVICENCIO,RUTA PROV.52,S/N,VILLAVICENCIO,LAS HERAS,RUTA PROV.52 S/N VILLAVICENCIO LAS HERAS,4.14916880,-73.62854750,4396487,54/98,"ROMERO POLETIN, JORGE HUMBERTO"
PIZZERIA,MAURO,25 DE MAYO,130,CIUDAD,SAN MARTIN,25 DE MAYO 130 CIUDAD SAN MARTIN,-33.08484275,-68.47376195,0263-4421533,N/T,"MAURO, SOSA DE"
RESTAURANTE,SANCHO RESTO,AMIGORENA,69,CIUDAD,CAPITAL,AMIGORENA 69 CIUDAD CAPITAL,-32.89210950,-68.83876700,4964234,455/18,CORTIP S.A.
CAFETERIA,ANDESPORT,PARQUE PROVINCIAL ACONCAGUA,S/N,PARQUE ACONCAGUA,LAS HERAS,PARQUE PROVINCIAL ACONCAGUA S/N PARQUE ACONCAGUA LAS HERAS,-32.65317900,-70.01086750,155525051,E/T,"AGšERO, MONICA PATRICIA"
SANDWICHERIA,ATENAS,PEATONAL SARMIENTO,25,CIUDAD,CAPITAL,PEATONAL SARMIENTO 25 CIUDAD CAPITAL,-32.89038000,-68.83983900,,045/18,AGROINDUSTRIAS CUYO S.A.
RESTAURANTE,OMAKI SUSHI SHOPPING,BV.PEREZ CUESTA,3280,MZA.PLAZA SHOPPING,GUAYMALLEN,BV.PEREZ CUESTA 3280 MZA.PLAZA SHOPPING GUAYMALLEN,-32.90195070,-68.79746810,4232216,454/18,ORGANIZACIàN Y GESTION S.A.
RESTAURANTE,LA BUENA COSECHA,BELGRANO,545,CIUDAD,TUPUNGATO,BELGRANO 545 CIUDAD TUPUNGATO,-33.37280360,-69.14755830,02622-15404392,517/10,"AGUADO, MARIELA CARINA"
RESTAURANTE,DOROTEA,LAS CA¥AS,1883,LA BARRACA MALL,GUAYMALLEN,LAS CA¥AS 1883 LA BARRACA MALL GUAYMALLEN,-32.91588920,-68.82197320,4588011,E/T,ALFAU S.A.
RESTAURANTE,LA VID,RUTA PROV.15,"KM.23,5",PERDRIEL,LUJAN,"RUTA PROV.15 KM.23,5 PERDRIEL LUJAN",-33.07676410,-68.88553380,4909790,322/11,BODEGA NORTON S.A.
CAFETERIA,R-19,BELGRANO,607-617,CIUDAD,CAPITAL,BELGRANO 607-617 CIUDAD CAPITAL,-32.89393981,-68.85078456,154161414,042/05,"LATORRE, LUIS SANTIAGO"
RESTAURANTE,REY DE LA MILANESA,PATRICIAS MENDOCINAS,1472,CIUDAD,CAPITAL,PATRICIAS MENDOCINAS 1472 CIUDAD CAPITAL,-32.88593510,-68.84224700,4293132,E/T,"SOSA, MARIO LUIS"
HELADERIA,SPAZIO,AV. EL LIBERTADOR,133,PALMIRA,SAN MARTIN,AV. EL LIBERTADOR 133 PALMIRA SAN MARTIN,-33.05179680,-68.56142740,,336/93,"ESCUDERO, CARLOS"
SANDWICHERIA,URQUIZA SANDWICH,URQUIZA,S/N,CIUDAD,TUPUNGATO,URQUIZA S/N CIUDAD TUPUNGATO,-33.37280360,-69.14755830,02622-488521,027/05,"NAHIR, SAUD GRACIELA"
RESTAURANTE,JOCKEY CLUB,BELGRANO,330,CIUDAD,SAN RAFAEL,BELGRANO 330 CIUDAD SAN RAFAEL,-34.61289220,-68.33906220,0260-4422336,N/T,"LOYOLA, MODESTO ELEUTERIO"
PIZZERIA,RIKA PIZZA,URQUIZA,S/N,CIUDAD,TUPUNGATO,URQUIZA S/N CIUDAD TUPUNGATO,-33.37280360,-69.14755830,02622-488521,E/T,"NAHIR, SAUD GRACIELA"
HELADERIA,LA DELICIA,BUENOS AIRES,49,CIUDAD,SAN RAFAEL,BUENOS AIRES 49 CIUDAD SAN RAFAEL,-34.60368440,-58.38155910,,N/T,"RAFFAELI, GUISELA M. DE"
RESTAURANTE,BODEGAS CHANDON,RUTA PROV.15,KM.29,AGRELO,LUJAN,RUTA PROV.15 KM.29 AGRELO LUJAN,-33.12222550,-68.88929770,4909900,320/11,BODEGAS CHANDON S.A.
RESTAURANTE,MI RINCON,AV.GODOY CRUZ,131,CIUDAD,SAN RAFAEL,AV.GODOY CRUZ 131 CIUDAD SAN RAFAEL,-34.61702460,-68.33305000,,N/T,"GUTIERREZ, MANUEL"
SANDWICHERIA,ZIPE ZAPPA,RUTA 144,S/N,CUADRO BENEGAS,SAN RAFAEL,RUTA 144 S/N CUADRO BENEGAS SAN RAFAEL,-34.90778140,-68.90040350,,N/T,"ALAN, MARTA DE"
CHOCOLATERIA,HANSEL Y GRETEL,AV.DEL SOL,S/N,PIEDRAS BLANCAS,LUJAN,AV.DEL SOL S/N PIEDRAS BLANCAS LUJAN,-34.56333120,-59.12088050,154674192,788/15,"GRAMAGLIA, HUGO ALBERTO"
PANADERIA,PANADERIA SABROPAN,AV.SAN MARTIN,585,CIUDAD,LUJAN,AV.SAN MARTIN 585 CIUDAD LUJAN,-34.56600621,-59.11403237,0261-4982393,E/T,"PEREZ CARRILLO, PEDRO JAVIER"
RESTAURANTE,LAZARO,CORONEL SUAREZ,194,CIUDAD,SAN RAFAEL,CORONEL SUAREZ 194 CIUDAD SAN RAFAEL,-34.61637940,-68.33304430,,72/85,"LAZARO,MIGUEL"
RESTAURANTE,GIMENEZ,AV.GODOY CRUZ,120,CIUDAD,SAN RAFAEL,AV.GODOY CRUZ 120 CIUDAD SAN RAFAEL,-34.61680570,-68.33335690,,84/85,"GIMENEZ,AURELIA NOEMI"
RESTAURANTE,EL MUNDO DEL JAMON,AV.GODOY CRUZ,506,CIUDAD,CAPITAL,AV.GODOY CRUZ 506 CIUDAD CAPITAL,-32.88315860,-68.84439600,4201375,E/T,"ROMERO, JORGE HUMBERTO"
RESTAURANTE,AL PUESTO,25 DE MAYO Y RUTA PROV.50,,CIUDAD,LA PAZ,25 DE MAYO Y RUTA PROV.50 CIUDAD LA PAZ,-16.48968900,-68.11929360,154547682,E/T,AL PUESTO S.A.
BUFFET,ESTACION CAR,RUTA NACIONAL 143,S/N,SALTO DE LAS ROSAS,SAN RAFAEL,RUTA NACIONAL 143 S/N SALTO DE LAS ROSAS SAN RAFAEL,-34.72675460,-68.23102330,,N/T,"ISMAEL,OSCAR"
RESTAURANTE,DORY,LOS ANDES,222,VILLA 25 DE MAYO,SAN RAFAEL,LOS ANDES 222 VILLA 25 DE MAYO SAN RAFAEL,-34.58565270,-68.54572680,,701/85,"OCHIPINTI,JOSE"
